title,state_name,ideology,year,city,lat,lon
211 Bootboys,New York,General Hate,2017,New York,40.6943,-73.9249
a2z Publications,Nevada,General Hate,2017,Las Vegas,36.2291,-115.2607
Abiding Truth Ministries,Massachusetts,Anti-LGBT,2017,Springfield,42.1155,-72.5395
AC Skins,New Jersey,Racist Skinhead,2017,Atlantic City,39.3797,-74.4527
ACT for America,Texas,Anti-Muslim,2017,Austin,30.3006,-97.7517
ACT for America,Louisiana,Anti-Muslim,2017,Baton Rouge,30.4423,-91.1314
ACT for America,Delaware,Anti-Muslim,2017,Bear,39.6188,-75.6804
ACT for America,Massachusetts,Anti-Muslim,2017,Boston,42.3188,-71.0846
ACT for America,California,Anti-Muslim,2017,Calabasas,34.1375,-118.6689
ACT for America,Ohio,Anti-Muslim,2017,Cincinnati,39.1412,-84.5059
ACT for America,Ohio,Anti-Muslim,2017,Cleveland,41.4767,-81.6805
ACT for America,Ohio,Anti-Muslim,2017,Columbus,39.986,-82.9852
ACT for America,California,Anti-Muslim,2017,Corona,33.862,-117.5644
ACT for America,Colorado,Anti-Muslim,2017,Denver,39.7621,-104.8759
ACT for America,Iowa,Anti-Muslim,2017,Des Moines,41.5725,-93.6104
ACT for America,Illinois,Anti-Muslim,2017,Des Plaines,42.0344,-87.9008
ACT for America,Indiana,Anti-Muslim,2017,Evansville,37.9882,-87.5339
ACT for America,North Carolina,Anti-Muslim,2017,Fayetteville,35.0846,-78.9776
ACT for America,Florida,Anti-Muslim,2017,Heathrow,28.7754,-81.3721
ACT for America,Texas,Anti-Muslim,2017,Houston,29.7868,-95.3905
ACT for America,Florida,Anti-Muslim,2017,Jacksonville,30.3322,-81.6749
ACT for America,Arkansas,Anti-Muslim,2017,Jonesboro,35.8212,-90.6795
ACT for America,Montana,Anti-Muslim,2017,Kalispell,48.2155,-114.3262
ACT for America,Missouri,Anti-Muslim,2017,Kansas City,39.1239,-94.5541
ACT for America,Tennessee,Anti-Muslim,2017,Knoxville,35.9692,-83.9495
ACT for America,Indiana,Anti-Muslim,2017,Lafayette,40.3991,-86.8594
ACT for America,California,Anti-Muslim,2017,Laguna Woods,33.6099,-117.7299
ACT for America,Virginia,Anti-Muslim,2017,Leesburg,39.1058,-77.5544
ACT for America,Texas,Anti-Muslim,2017,Lewisville,33.0453,-96.9823
ACT for America,California,Anti-Muslim,2017,Los Angeles,34.1139,-118.4068
ACT for America,Tennessee,Anti-Muslim,2017,Memphis,35.1047,-89.9773
ACT for America,Idaho,Anti-Muslim,2017,Meridian,43.6113,-116.3972
ACT for America,Minnesota,Anti-Muslim,2017,Minneapolis,44.9635,-93.2678
ACT for America,California,Anti-Muslim,2017,Mission Viejo,33.6095,-117.6551
ACT for America,New Hampshire,Anti-Muslim,2017,Nashua,42.7491,-71.491
ACT for America,South Dakota,Anti-Muslim,2017,Rapid City,44.0716,-103.2205
ACT for America,California,Anti-Muslim,2017,Santa Clarita,34.4155,-118.4992
ACT for America,Oregon,Anti-Muslim,2017,Silverton,45.003,-122.7808
ACT for America,Washington,Anti-Muslim,2017,Spokane Valley,47.6625,-117.2346
ACT for America,Indiana,Anti-Muslim,2017,Terre Haute,39.4654,-87.3763
ACT for America,Arizona,Anti-Muslim,2017,Tucson,32.1546,-110.8782
ACT for America,Virginia,Anti-Muslim,2017,Virginia Beach,36.7335,-76.0435
ACT for America,District of Columbia,Anti-Muslim,2017,Washington,38.9047,-77.0163
ACT for America,Montana,Anti-Muslim,2017,Whitehall,45.8709,-112.0975
Aggressive Christianity,New Mexico,General Hate,2017,Fence Lake,34.669,-108.6801
All Eyes On Egypt Bookstore,New Jersey,Black Nationalist,2017,Newark,40.7245,-74.1725
All Eyes on Egipt Bookstore,Ohio,Black Nationalist,2017,Cleveland,41.4767,-81.6805
All Eyes on Egipt Bookstore,Georgia,Black Nationalist,2017,Decatur,33.7711,-84.2968
All Eyes on Egipt Bookstore,Michigan,Black Nationalist,2017,Detroit,42.3834,-83.1024
All Eyes on Egipt Bookstore,Florida,Black Nationalist,2017,Orlando,28.4788,-81.342
All Eyes On Egipt Bookstore,Illinois,Black Nationalist,2017,Chicago,41.8373,-87.6861
All Eyes On Egipt Bookstore,New York,Black Nationalist,2017,Brooklyn,40.6501,-73.9496
All Eyes On Egypt Bookstore,Georgia,Black Nationalist,2017,Macon,32.8407,-83.6324
Alliance Defending Freedom,Arizona,Anti-LGBT,2017,Scottsdale,33.6872,-111.865
Alternative Right,Georgia,White Nationalist,2017,Atlanta,33.7626,-84.4228
AltRight Corporation,Virginia,White Nationalist,2017,Alexandria,38.8185,-77.0861
Ambassadors of Christ,New York,Black Nationalist,2017,Brooklyn,40.6501,-73.9496
America First Committee,Illinois,Neo-Nazi,2017,Lyons,41.8121,-87.8192
America's Promise Ministries,Idaho,Christian Identity,2017,Sandpoint,48.2832,-116.5613
American Border Patrol,Arizona,Anti-Immigrant,2017,Sierra Vista,31.563,-110.3153
American Children First,California,Anti-Immigrant,2017,Torrance,33.8346,-118.3417
American Clarion,South Dakota,General Hate,2017,Rapid City,44.0716,-103.2205
American College of Pediatricians,Florida,Anti-LGBT,2017,Gainesville,29.6808,-82.3455
American Family Association,Pennsylvania,Anti-LGBT,2017,Franklin,41.3936,-79.8425
American Family Association,Mississippi,Anti-LGBT,2017,Tupelo,34.2691,-88.7318
American Free Press,Maryland,General Hate,2017,Upper Marlboro,38.8172,-76.7546
American Freedom Alliance,California,Anti-Muslim,2017,Los Angeles,34.1139,-118.4068
American Freedom Defense Initiative,New York,Anti-Muslim,2017,New York,40.6943,-73.9249
American Freedom Law Center,Michigan,Anti-Muslim,2017,Ann Arbor,42.2755,-83.7312
American Freedom Party,Texas,White Nationalist,2017,Granbury,32.4483,-97.7685
American Freedom Party,California,White Nationalist,2017,Los Angeles,34.1139,-118.4068
American Freedom Party,New York,White Nationalist,2017,New York,40.6943,-73.9249
American Immigration Control Foundation/Americans for Immigration Control,Virginia,Anti-Immigrant,2017,Monterey,38.4116,-79.5809
American Nazi Party,Michigan,Neo-Nazi,2017,Westland,42.3192,-83.3805
American Public Policy Alliance,District of Columbia,Anti-Muslim,2017,Washington,38.9047,-77.0163
American Renaissance/New Century Foundation,Virginia,White Nationalist,2017,Oakton,38.8887,-77.3017
American Vikings,Illinois,Racist Skinhead,2017,Danville,40.1423,-87.6114
American Vision,Georgia,Anti-LGBT,2017,Powder Springs,33.866,-84.6838
Americans for America,Colorado,Anti-Muslim,2017,Englewood,39.6468,-104.9942
Americans for Legal Immigration (ALIPAC),North Carolina,Anti-Immigrant,2017,Raleigh,35.8323,-78.6439
Americans for Truth About Homosexuality,Illinois,Anti-LGBT,2017,Naperville,41.7483,-88.1657
Ancient Egyptian Distribution Company,New Jersey,Black Nationalist,2017,Jersey City,40.7161,-74.0682
Army of Israel,Ohio,Black Nationalist,2017,Dayton,39.7797,-84.1998
Aryan Nations Sadistic Souls MC,Illinois,Neo-Nazi,2017,Canton,40.5632,-90.0409
Aryan Nations Sadistic Souls MC,Missouri,Neo-Nazi,2017,Grovespring,37.3998,-92.6096
Aryan Nations Sadistic Souls MC,Illinois,Neo-Nazi,2017,Wood River,38.8633,-90.0773
Aryan Nations Worldwide,Georgia,Neo-Nazi,2017,Villa Rica,33.7305,-84.917
Aryan Strikeforce,New Jersey,Racist Skinhead,2017,Phillipsburg,40.6895,-75.1821
As-Sabiqun,District of Columbia,General Hate,2017,Washington,38.9047,-77.0163
Asatru Folk Assembly,California,Neo-Volkisch,2017,Brownsville,39.4732,-121.2691
ATLAH World Missionary Church (All The Land Anointed Holy),New York,Anti-LGBT,2017,New York,40.6943,-73.9249
Auburn White Student Union,Alabama,White Nationalist,2017,Auburn,32.6084,-85.4897
"Barnes Review/Foundation for Economic Liberty, Inc.",Maryland,Holocaust Denial,2017,Upper Marlboro,38.8172,-76.7546
Be Active Front USA,Pennsylvania,Racist Skinhead,2017,Philadelphia,40.0076,-75.134
Behold Barbarity Records & Distro,Minnesota,Hate Music,2017,Plymouth,45.0224,-93.4615
Bible Believers Fellowship,Ohio,Anti-LGBT,2017,Worthington,40.0949,-83.021
Black Riders Liberation Party,Texas,Black Nationalist,2017,Houston,29.7868,-95.3905
Black Riders Liberation Party,Nevada,Black Nationalist,2017,Las Vegas,36.2291,-115.2607
Black Riders Liberation Party,California,Black Nationalist,2017,Los Angeles,34.1139,-118.4068
Black Riders Liberation Party,New York,Black Nationalist,2017,New York,40.6943,-73.9249
Black Riders Liberation Party,California,Black Nationalist,2017,Oakland,37.7903,-122.2165
Black Riders Liberation Party,Oregon,Black Nationalist,2017,Portland,45.5372,-122.65
Bob's Underground Graduate Seminar/BUGS,South Carolina,White Nationalist,2017,Columbia,34.037,-80.9042
Bomb Islam,Arizona,Anti-Muslim,2017,Phoenix,33.5722,-112.0891
Borderkeepers of Alabama,Alabama,Anti-Immigrant,2017,Birmingham,33.5276,-86.7988
The Brother Nathanael Foundation,Idaho,General Hate,2017,Priest River,48.1782,-116.8841
Bureau on American Islamic Relations,Texas,Anti-Muslim,2017,Irving,32.8584,-96.9702
Californians for Population Stabilization,California,Anti-Immigrant,2017,Santa Barbara,34.4285,-119.7202
Campaign for Radical Truth in History,Idaho,Holocaust Denial,2017,Coeur d'Alene,47.7039,-116.7933
The Campus Ministry USA,Indiana,Anti-LGBT,2017,Terre Haute,39.4654,-87.3763
carolynyeager.net,Texas,Holocaust Denial,2017,Kerrville,30.0399,-99.1319
"Catholic Family News/Catholic Family Ministries, Inc.",New York,Radical Traditional Catholicism,2017,Niagara Falls,43.0921,-79.0147
Center for Family and Human Rights (C-FAM),New York,Anti-LGBT,2017,New York,40.6943,-73.9249
Center for Family and Human Rights (C-FAM),District of Columbia,Anti-LGBT,2017,Washington,38.9047,-77.0163
Center for Immigration Studies,District of Columbia,Anti-Immigrant,2017,Washington,38.9047,-77.0163
Center for Security Policy,District of Columbia,Anti-Muslim,2017,Washington,38.9047,-77.0163
Chalcedon Foundation,California,Anti-LGBT,2017,Vallecito,38.074,-120.4563
Chick Publications,California,General Hate,2017,Ontario,34.0393,-117.6064
Christian Action Network,Virginia,Anti-Muslim,2017,Forest,37.3728,-79.2831
Christian America Ministries,Louisiana,Christian Identity,2017,Greensburg,30.83,-90.6698
Christian Civil Rights Watch,Colorado,Anti-LGBT,2017,Colorado Springs,38.8674,-104.7606
Christian Revival Center,Arkansas,Christian Identity,2017,Harrison,36.2437,-93.1197
Church of Israel,Missouri,Christian Identity,2017,Schell City,38.0192,-94.1167
Church of the American Christian Knights,Mississippi,Ku Klux Klan,2017,Moselle,31.5024,-89.2789
Church of the National Knights of the Ku Klux Klan,New York,Ku Klux Klan,2017,Panama,42.0747,-79.485
Citizens for National Security,Florida,Anti-Muslim,2017,Boca Raton,26.3749,-80.1077
Citizens for the St. Croix Valley,Wisconsin,Anti-Muslim,2017,Hudson,44.964,-92.7319
Citizens' Action Group of South Florida,Florida,Anti-Muslim,2017,Hollywood,26.0293,-80.1678
Clarion Project,District of Columbia,Anti-Muslim,2017,Washington,38.9047,-77.0163
Colorado Alliance for Immigration Reform,Colorado,Anti-Immigrant,2017,Lakewood,39.6978,-105.1168
Committee for Open Debate on the Holocaust,California,Holocaust Denial,2017,Mill Valley,37.9085,-122.542
Committee for Open Debate on the Holocaust,Pennsylvania,Holocaust Denial,2017,York,39.9651,-76.7315
Committee to End the CSI Refugee Center,Idaho,Anti-Muslim,2017,Buhl,42.5985,-114.7596
Concerned Citizens and Friends of Illegal Immigration Law Enforcement,Massachusetts,General Hate,2017,Framingham,42.3085,-71.4368
Confederate White Knights of the Ku Klux Klan,Indiana,Ku Klux Klan,2017,Auburn,41.3666,-85.056
Confederate White Knights of the Ku Klux Klan,Maryland,Ku Klux Klan,2017,Rosedale,39.3266,-76.5084
Confederate White Knights of the Ku Klux Klan,Missouri,Ku Klux Klan,2017,Sikeston,36.8875,-89.587
Conservative Forum of Silicon Valley,California,Anti-Muslim,2017,Cupertino,37.3168,-122.0465
Conservative Republicans of Texas,Texas,Anti-LGBT,2017,Houston,29.7868,-95.3905
Council of Conservative Citizens,Maryland,White Nationalist,2017,Jefferson,39.3661,-77.5409
Council of Conservative Citizens,Missouri,White Nationalist,2017,Potosi,37.9337,-90.775
Counter Jihad Coalition,California,Anti-Muslim,2017,Santa Monica,34.0232,-118.4813
Counter Terrorism Cell,Nevada,Anti-Muslim,2017,Las Vegas,36.2291,-115.2607
Counter-Currents Publishing,New York,White Nationalist,2017,New York,40.6943,-73.9249
Counter-Currents Publishing,California,White Nationalist,2017,San Francisco,37.7562,-122.443
Counter-Currents Publishing,Washington,White Nationalist,2017,Seattle,47.6211,-122.3244
Covenant Nation Church of the Lord Jesus Christ,Alabama,Christian Identity,2017,Center Point,33.6447,-86.6851
Covenant People's Ministry,Georgia,Christian Identity,2017,Brooks,33.2925,-84.4588
The Creativity Movement,Illinois,Neo-Nazi,2017,Bloomington,40.4757,-88.9705
The Creativity Movement,South Dakota,Neo-Nazi,2017,Brookings,44.3022,-96.7859
Cultural Studies Press,New York,General Hate,2017,New York,40.6943,-73.9249
Culture Wars/Fidelity Press,Indiana,Radical Traditional Catholicism,2017,South Bend,41.6771,-86.2692
Cultures In Context Incorporated/Turning Point Project,Florida,Anti-Muslim,2017,Immokalee,26.4253,-81.4251
D. James Kennedy Ministries (formerly Truth in Action),Florida,Anti-LGBT,2017,Fort Lauderdale,26.1412,-80.1464
The Daily Stormer,Ohio,Neo-Nazi,2017,Worthington,40.0949,-83.021
David Horowitz Freedom Center,California,Anti-Muslim,2017,Los Angeles,34.1139,-118.4068
Deir Yassin Remembered,Michigan,Holocaust Denial,2017,Ann Arbor,42.2755,-83.7312
Deir Yassin Remembered,New York,Holocaust Denial,2017,Geneva,42.8644,-76.9827
Divine International Church of the Web,Illinois,Christian Identity,2017,Morton,40.6137,-89.4668
Divine Truth Ministries,Ohio,Christian Identity,2017,Bainbridge,39.2265,-83.2695
Dixie Republic,South Carolina,Neo-Confederate,2017,Travelers Rest,34.9684,-82.4417
The Dustin Inman Society,Georgia,Anti-Immigrant,2017,Marietta,33.9532,-84.5421
East Coast Knights of the True Invisible Empire,Maryland,Ku Klux Klan,2017,Rising Sun,39.7003,-76.0587
Elegy Records,New Jersey,Hate Music,2017,Clifton,40.8631,-74.1575
Euro Folk Radio,Illinois,Christian Identity,2017,Chicago,41.8373,-87.6861
European-American Evangelistic Crusades,California,General Hate,2017,Sheridan,38.969,-121.356
Faith and Heritage,Texas,White Nationalist,2017,Killeen,31.0754,-97.7293
Faith Leaders for America,District of Columbia,Anti-Muslim,2017,Washington,38.9047,-77.0163
Faith2Action,Ohio,Anti-LGBT,2017,North Royalton,41.3138,-81.7451
Faithful Word Baptist Church,Arizona,Anti-LGBT,2017,Tempe,33.3881,-111.9318
Family Research Council,District of Columbia,Anti-LGBT,2017,Washington,38.9047,-77.0163
Family Research Institute,Colorado,Anti-LGBT,2017,Colorado Springs,38.8674,-104.7606
Family Security Matters,District of Columbia,Anti-Muslim,2017,Washington,38.9047,-77.0163
Family Watch International,Arizona,Anti-LGBT,2017,Gilbert,33.3103,-111.7463
Federation for American Immigration Reform,District of Columbia,Anti-Immigrant,2017,Washington,38.9047,-77.0163
Fellowship of God's Covenant People,Kentucky,Christian Identity,2017,Union,38.9472,-84.6731
The Fitzgerald Griffin Foundation,Virginia,White Nationalist,2017,Vienna,38.8996,-77.2597
Florida Family Association,Florida,Anti-Muslim,2017,Tampa,27.9937,-82.4454
Folkgard of Holda & Odin,Arizona,Neo-Volkisch,2017,Apache Junction,33.3985,-111.5351
Fortress of Faith,Washington,Anti-Muslim,2017,Bellingham,48.7543,-122.4687
Forza Nuova,Arizona,White Nationalist,2017,Phoenix,33.5722,-112.0891
Foundation for Advocating Christian Truth,New York,Anti-Muslim,2017,Bronx,40.8501,-73.8662
Free American,Arizona,White Nationalist,2017,Tucson,32.1546,-110.8782
Fundamentalist Latter Day Saints,Arizona,General Hate,2017,Colorado City,36.9774,-112.983
Fundamentalist Latter Day Saints,Utah,General Hate,2017,Hildale,37.0171,-112.9786
G416 Patriots,Texas,Anti-Muslim,2017,Boerne,29.7845,-98.7291
Gallows Tree Wotansvolk Alliance,Michigan,Neo-Volkisch,2017,Grand Rapids,42.9615,-85.6557
Generations With Vision,Colorado,Anti-LGBT,2017,Elizabeth,39.3611,-104.6061
Global Crusaders: Order of the Ku Klux Klan,Florida,Ku Klux Klan,2017,Jacksonville,30.3322,-81.6749
Global Faith Institute,Nebraska,Anti-Muslim,2017,Omaha,41.2628,-96.0495
GoyFundMe,Indiana,White Nationalist,2017,Paoli,38.5572,-86.4699
Great Millstone,Georgia,Black Nationalist,2017,Atlanta,33.7626,-84.4228
Great Millstone,Maryland,Black Nationalist,2017,Baltimore,39.3051,-76.6144
Great Millstone,Alabama,Black Nationalist,2017,Birmingham,33.5276,-86.7988
Great Millstone,North Carolina,Black Nationalist,2017,Charlotte,35.2079,-80.8303
Great Millstone,Illinois,Black Nationalist,2017,Chicago,41.8373,-87.6861
Great Millstone,Ohio,Black Nationalist,2017,Cleveland,41.4767,-81.6805
Great Millstone,Texas,Black Nationalist,2017,Dallas,32.7937,-96.7662
Great Millstone,Iowa,Black Nationalist,2017,Des Moines,41.5725,-93.6104
Great Millstone,Michigan,Black Nationalist,2017,Detroit,42.3834,-83.1024
Great Millstone,Texas,Black Nationalist,2017,Houston,29.7868,-95.3905
Great Millstone,Nevada,Black Nationalist,2017,Las Vegas,36.2291,-115.2607
Great Millstone,California,Black Nationalist,2017,Los Angeles,34.1139,-118.4068
Great Millstone,Tennessee,Black Nationalist,2017,Memphis,35.1047,-89.9773
Great Millstone,Florida,Black Nationalist,2017,Miami,25.784,-80.2102
Great Millstone,New York,Black Nationalist,2017,New York,40.6943,-73.9249
Great Millstone,Texas,Black Nationalist,2017,San Antonio,29.4722,-98.5247
Great Millstone,Florida,Black Nationalist,2017,Tampa,27.9937,-82.4454
H.L. Mencken Club,Pennsylvania,White Nationalist,2017,Elizabethtown,40.1534,-76.5991
Hatreon,Texas,General Hate,2017,Austin,30.3006,-97.7517
Heterosexuals Organized for a Moral Environment (H.O.M.E.),Illinois,Anti-LGBT,2017,Downers Grove,41.7949,-88.017
Hostile Class Productions,Illinois,Hate Music,2017,Burbank,41.7444,-87.7686
House of David Camp,New York,Black Nationalist,2017,Brooklyn,40.6501,-73.9496
House of Israel,New York,Black Nationalist,2017,New York,40.6943,-73.9249
Identity Evropa,Georgia,White Nationalist,2017,Atlanta,33.7626,-84.4228
Identity Evropa,North Carolina,White Nationalist,2017,Boone,36.2111,-81.6669
Identity Evropa,Colorado,White Nationalist,2017,Boulder,40.0249,-105.2523
Identity Evropa,California,White Nationalist,2017,Oakdale,37.7616,-120.847
IHS Press,Texas,Radical Traditional Catholicism,2017,Odessa,31.8831,-102.3407
Illinois Family Institute,Illinois,Anti-LGBT,2017,Carol Stream,41.9183,-88.1309
Illinois Family Institute,Illinois,Anti-LGBT,2017,East Peoria,40.6739,-89.5421
Immigration Reform Law Institute,District of Columbia,Anti-Immigrant,2017,Washington,38.9047,-77.0163
In the Spirit of Chartres Committee,Virginia,Radical Traditional Catholicism,2017,Carrollton,36.9394,-76.5265
Insight USA,Florida,General Hate,2017,Longwood,28.7018,-81.3488
Institute for Historical Review,California,Holocaust Denial,2017,Newport Beach,33.6151,-117.8669
International Keystone Knights of the KKK,Georgia,Ku Klux Klan,2017,Cedartown,34.0224,-85.248
International Keystone Knights of the KKK,Arkansas,Ku Klux Klan,2017,Vanndale,35.3134,-90.774
Irving Books,Florida,Holocaust Denial,2017,Key West,24.5636,-81.7769
ISD Records,Texas,Hate Music,2017,Denison,33.7675,-96.5807
Israel United In Christ,Georgia,Black Nationalist,2017,Atlanta,33.7626,-84.4228
Israel United In Christ,Texas,Black Nationalist,2017,Austin,30.3006,-97.7517
Israel United In Christ,Massachusetts,Black Nationalist,2017,Boston,42.3188,-71.0846
Israel United In Christ,Alabama,Black Nationalist,2017,Center Point,33.6447,-86.6851
Israel United In Christ,Illinois,Black Nationalist,2017,Chicago,41.8373,-87.6861
Israel United in Christ,North Carolina,Black Nationalist,2017,Concord,35.3933,-80.636
Israel United In Christ,Texas,Black Nationalist,2017,Corpus Christi,27.7173,-97.3822
Israel United In Christ,Texas,Black Nationalist,2017,Dallas,32.7937,-96.7662
Israel United In Christ,Colorado,Black Nationalist,2017,Denver,39.7621,-104.8759
Israel United In Christ,Michigan,Black Nationalist,2017,Detroit,42.3834,-83.1024
Israel United In Christ,Virginia,Black Nationalist,2017,Hampton,37.0551,-76.3629
Israel United In Christ,Ohio,Black Nationalist,2017,Heath,40.0241,-82.4412
Israel United In Christ,Texas,Black Nationalist,2017,Houston,29.7868,-95.3905
Israel United In Christ,Kansas,Black Nationalist,2017,Kansas City,39.1234,-94.7443
Israel United In Christ,Nevada,Black Nationalist,2017,Las Vegas,36.2291,-115.2607
Israel United In Christ,California,Black Nationalist,2017,Los Angeles,34.1139,-118.4068
Israel United In Christ,Kentucky,Black Nationalist,2017,Louisville,38.1662,-85.6488
Israel United In Christ,Tennessee,Black Nationalist,2017,Memphis,35.1047,-89.9773
Israel United In Christ,Florida,Black Nationalist,2017,Miami,25.784,-80.2102
Israel United in Christ,Alabama,Black Nationalist,2017,Mobile,30.6783,-88.1162
Israel United In Christ,New York,Black Nationalist,2017,Mount Vernon,40.9136,-73.8291
Israel United In Christ,Louisiana,Black Nationalist,2017,New Orleans,30.0687,-89.9288
Israel United In Christ,New Jersey,Black Nationalist,2017,Newark,40.7245,-74.1725
Israel United in Christ,Oklahoma,Black Nationalist,2017,Oklahoma City,35.4676,-97.5136
Israel United in Christ,Oklahoma,Black Nationalist,2017,Oklahoma City,35.4676,-97.5136
Israel United In Christ,Florida,Black Nationalist,2017,Orlando,28.4788,-81.342
Israel United In Christ,Arizona,Black Nationalist,2017,Phoenix,33.5722,-112.0891
Israel United In Christ,Pennsylvania,Black Nationalist,2017,Pittsburgh,40.4396,-79.9763
Israel United In Christ,Texas,Black Nationalist,2017,San Antonio,29.4722,-98.5247
Israel United In Christ,Georgia,Black Nationalist,2017,Savannah,32.0282,-81.1786
Israel United in Christ,Washington,Black Nationalist,2017,Seattle,47.6211,-122.3244
Israel United In Christ,Florida,Black Nationalist,2017,Tallahassee,30.455,-84.2526
Israel United In Christ,District of Columbia,Black Nationalist,2017,Washington,38.9047,-77.0163
Israelite Church of God in Jesus Christ,Connecticut,Black Nationalist,2017,Bridgeport,41.1909,-73.1958
Israelite Church of God in Jesus Christ,Pennsylvania,Black Nationalist,2017,Philadelphia,40.0076,-75.134
The Israelite Church of God in Jesus Christ,Pennsylvania,Black Nationalist,2017,Allentown,40.5961,-75.4756
The Israelite Church of God in Jesus Christ,Maryland,Black Nationalist,2017,Baltimore,39.3051,-76.6144
The Israelite Church of God in Jesus Christ,North Carolina,Black Nationalist,2017,Greensboro,36.0956,-79.8269
The Israelite Church of God in Jesus Christ,Minnesota,Black Nationalist,2017,Minneapolis,44.9635,-93.2678
The Israelite Church of God in Jesus Christ,New York,Black Nationalist,2017,New York,40.6943,-73.9249
The Israelite Church of God in Jesus Christ,Nebraska,Black Nationalist,2017,Omaha,41.2628,-96.0495
The Israelite Church of God in Jesus Christ,Florida,Black Nationalist,2017,Orlando,28.4788,-81.342
The Israelite Church of God in Jesus Christ,Pennsylvania,Black Nationalist,2017,Pittsburgh,40.4396,-79.9763
The Israelite Church of God in Jesus Christ,Oregon,Black Nationalist,2017,Portland,45.5372,-122.65
The Israelite Church of God in Jesus Christ,District of Columbia,Black Nationalist,2017,Washington,38.9047,-77.0163
The Israelite Church of God in Jesus Christ,Florida,Black Nationalist,2017,West Palm Beach,26.7467,-80.1314
Israelite School of Universal Practical Knowledge,Georgia,Black Nationalist,2017,Atlanta,33.7626,-84.4228
Israelite School of Universal Practical Knowledge,Maryland,Black Nationalist,2017,Baltimore,39.3051,-76.6144
Israelite School of Universal Practical Knowledge,Illinois,Black Nationalist,2017,Chicago,41.8373,-87.6861
Israelite School of Universal Practical Knowledge,Texas,Black Nationalist,2017,Dallas,32.7937,-96.7662
Israelite School of Universal Practical Knowledge,Michigan,Black Nationalist,2017,Detroit,42.3834,-83.1024
Israelite School of Universal Practical Knowledge,South Carolina,Black Nationalist,2017,Greenville,34.8363,-82.365
Israelite School of Universal Practical Knowledge,Hawaii,Black Nationalist,2017,Honolulu,21.3294,-157.846
Israelite School of Universal Practical Knowledge,Texas,Black Nationalist,2017,Houston,29.7868,-95.3905
Israelite School of Universal Practical Knowledge,Indiana,Black Nationalist,2017,Indianapolis,39.7771,-86.1458
Israelite School of Universal Practical Knowledge,Florida,Black Nationalist,2017,Jacksonville,30.3322,-81.6749
Israelite School of Universal Practical Knowledge,Missouri,Black Nationalist,2017,Kansas City,39.1239,-94.5541
Israelite School of Universal Practical Knowledge,California,Black Nationalist,2017,Los Angeles,34.1139,-118.4068
Israelite School of Universal Practical Knowledge,Kentucky,Black Nationalist,2017,Louisville,38.1662,-85.6488
Israelite School of Universal Practical Knowledge,Massachusetts,Black Nationalist,2017,Lynn,42.4779,-70.9663
Israelite School of Universal Practical Knowledge,Minnesota,Black Nationalist,2017,Minneapolis,44.9635,-93.2678
Israelite School of Universal Practical Knowledge,Tennessee,Black Nationalist,2017,Nashville,36.1714,-86.7844
Israelite School of Universal Practical Knowledge,Oklahoma,Black Nationalist,2017,Oklahoma City,35.4676,-97.5136
Israelite School of Universal Practical Knowledge,Pennsylvania,Black Nationalist,2017,Philadelphia,40.0076,-75.134
Israelite School of Universal Practical Knowledge,Oregon,Black Nationalist,2017,Portland,45.5372,-122.65
Israelite School of Universal Practical Knowledge,Washington,Black Nationalist,2017,Seattle,47.6211,-122.3244
Israelite School of Universal Practical Knowledge,New York,Black Nationalist,2017,Syracuse,43.0409,-76.1438
Israelite School of Universal Practical Knowledge,Florida,Black Nationalist,2017,Tampa,27.9937,-82.4454
Israelite School of Universal Practical Knowledge,District of Columbia,Black Nationalist,2017,Washington,38.9047,-77.0163
Jamaat al-Muslimeen,Maryland,General Hate,2017,Baltimore,39.3051,-76.6144
Jewish Defense League,New York,General Hate,2017,Brooklyn,40.6501,-73.9496
Jewish Defense League,Illinois,General Hate,2017,Chicago,41.8373,-87.6861
Jewish Defense League,California,General Hate,2017,Los Angeles,34.1139,-118.4068
Keep South Dakota Safe PAC,South Dakota,Anti-Muslim,2017,Aberdeen,45.4646,-98.468
Keystone State Skinheads,Pennsylvania,Racist Skinhead,2017,Harrisburg,40.2752,-76.8843
Keystone State Skinheads,Pennsylvania,Racist Skinhead,2017,Philadelphia,40.0076,-75.134
Kingdom Identity Ministries,Arkansas,Christian Identity,2017,Harrison,36.2437,-93.1197
Kingston Group,Utah,General Hate,2017,Salt Lake City,40.7774,-111.9301
Knights of the Ku Klux Klan,Arkansas,Ku Klux Klan,2017,Harrison,36.2437,-93.1197
Knights of the White Disciples,Florida,Ku Klux Klan,2017,Hudson,28.3594,-82.6888
Ku Klos Knights of the KKK,Tennessee,Ku Klux Klan,2017,Bristol,36.5572,-82.2144
Ku Klos Knights of the KKK,Illinois,Ku Klux Klan,2017,Nashville,38.3514,-89.3772
Ku Klos Knights of the KKK,Tennessee,Ku Klux Klan,2017,Knoxville,35.9692,-83.9495
Label 56,Maryland,Hate Music,2017,Baltimore,39.3051,-76.6144
Last Frontier Evangelism- Repent Alaska,Alaska,General Hate,2017,Anchorage,61.1508,-149.1091
League of the South,Virginia,Neo-Confederate,2017,Danville,36.5831,-79.4088
League of the South,Alabama,Neo-Confederate,2017,Dothan,31.2336,-85.4068
League of the South,Florida,Neo-Confederate,2017,Gainesville,29.6808,-82.3455
League of the South,Arkansas,Neo-Confederate,2017,Harrison,36.2437,-93.1197
League of the South,Florida,Neo-Confederate,2017,Hialeah,25.8696,-80.3045
League of the South,Mississippi,Neo-Confederate,2017,Holly Springs,34.7768,-89.4466
League of the South,Mississippi,Neo-Confederate,2017,Jackson,32.3163,-90.2124
League of the South,Florida,Neo-Confederate,2017,Jacksonville,30.3322,-81.6749
League of the South,Tennessee,Neo-Confederate,2017,Johnson City,36.3406,-82.3804
League of the South,Alabama,Neo-Confederate,2017,Killen,34.8607,-87.5269
League of the South,Tennessee,Neo-Confederate,2017,Knoxville,35.9692,-83.9495
League of the South,Florida,Neo-Confederate,2017,Lake City,30.1892,-82.6469
League of the South,Tennessee,Neo-Confederate,2017,Memphis,35.1047,-89.9773
League of the South,Tennessee,Neo-Confederate,2017,Nashville,36.1714,-86.7844
League of the South,Kentucky,Neo-Confederate,2017,Taylorsville,38.0368,-85.3336
League of the South,Alabama,Neo-Confederate,2017,Tuscaloosa,33.2349,-87.5267
League of the South,Texas,Neo-Confederate,2017,Waxahachie,32.4036,-96.8428
League of the South,Alabama,Neo-Confederate,2017,Weogufka,33.0267,-86.3169
League of the South,Alabama,Neo-Confederate,2017,Wetumpka,32.5407,-86.2057
Liberty Counsel,Florida,Anti-LGBT,2017,Orlando,28.4788,-81.342
Lincoln County Citizen Action Network,Tennessee,Anti-Muslim,2017,Fayetteville,35.149,-86.5634
Lions of Israel,New York,Black Nationalist,2017,Mount Vernon,40.9136,-73.8291
Lordship Church,Idaho,General Hate,2017,Coeur d'Alene,47.7039,-116.7933
Loyal White Knights of the KKK,California,Ku Klux Klan,2017,Anaheim,33.839,-117.8572
Loyal White Knights of the KKK,Colorado,Ku Klux Klan,2017,Grand Junction,39.0878,-108.5673
Loyal White Knights of the KKK,Ohio,Ku Klux Klan,2017,Hamilton,39.3938,-84.5653
Loyal White Knights of the KKK,New York,Ku Klux Klan,2017,Hampton Bays,40.8692,-72.5227
Loyal White Knights of the KKK,Texas,Ku Klux Klan,2017,Houston,29.7868,-95.3905
Loyal White Knights of the KKK,Florida,Ku Klux Klan,2017,Jacksonville,30.3322,-81.6749
Loyal White Knights of the KKK,North Carolina,Ku Klux Klan,2017,Pelham,36.5101,-79.4717
Loyal White Knights of the KKK,North Carolina,Ku Klux Klan,2017,Red Springs,34.8046,-79.1822
Loyal White Knights of the KKK,Virginia,Ku Klux Klan,2017,Richmond,37.5295,-77.4756
Loyal White Knights of the KKK,Ohio,Ku Klux Klan,2017,Sandusky,41.4437,-82.7149
Loyal White Knights of the KKK,Pennsylvania,Ku Klux Klan,2017,Waynesboro,39.7525,-77.5822
Mary Noel Kershaw Foundation,Tennessee,Neo-Confederate,2017,Lobelville,35.7507,-87.7958
Maryland State Skinheads,Maryland,Racist Skinhead,2017,Baltimore,39.3051,-76.6144
Masjid al Islam,District of Columbia,General Hate,2017,Washington,38.9047,-77.0163
Mass Resistance,California,Anti-LGBT,2017,Torrance,33.8346,-118.3417
Mass Resistance,Massachusetts,Anti-LGBT,2017,Waltham,42.3889,-71.2423
Michiganders for Immigration Control and Enforcement,Michigan,Anti-Immigrant,2017,Frankenmuth,43.3321,-83.7396
Midland Hammerskins,Kansas,Racist Skinhead,2017,Wichita,37.6897,-97.3442
Mission to Israel,Nebraska,Christian Identity,2017,Scottsbluff,41.8677,-103.6619
Mission: America,Ohio,Anti-LGBT,2017,Columbus,39.986,-82.9852
Mississippi White Knights of the KKK,Mississippi,Ku Klux Klan,2017,Bruce,33.9909,-89.3454
MSR Productions,Colorado,Hate Music,2017,Wheat Ridge,39.7728,-105.1031
Nation of Islam,Ohio,Black Nationalist,2017,Akron,41.0802,-81.5219
Nation of Islam,Georgia,Black Nationalist,2017,Albany,31.5776,-84.1762
Nation Of Islam,Georgia,Black Nationalist,2017,Augusta,33.3645,-82.0708
Nation of Islam,Texas,Black Nationalist,2017,Austin,30.3006,-97.7517
Nation of Islam,Maryland,Black Nationalist,2017,Baltimore,39.3051,-76.6144
Nation of Islam,Louisiana,Black Nationalist,2017,Baton Rouge,30.4423,-91.1314
Nation of Islam,Michigan,Black Nationalist,2017,Benton Harbor,42.1159,-86.4488
Nation of Islam,Alabama,Black Nationalist,2017,Birmingham,33.5276,-86.7988
Nation of Islam,New York,Black Nationalist,2017,Brooklyn,40.6501,-73.9496
Nation of Islam,Georgia,Black Nationalist,2017,Brunswick,31.145,-81.474
Nation of Islam,New York,Black Nationalist,2017,Buffalo,42.9017,-78.8487
Nation of Islam,New Jersey,Black Nationalist,2017,Camden,39.9361,-75.1073
Nation of Islam,South Carolina,Black Nationalist,2017,Charleston,32.8137,-79.9643
Nation of Islam,North Carolina,Black Nationalist,2017,Charlotte,35.2079,-80.8303
Nation of Islam,Tennessee,Black Nationalist,2017,Chattanooga,35.0657,-85.2488
Nation of Islam,Illinois,Black Nationalist,2017,Chicago,41.8373,-87.6861
Nation of Islam,Ohio,Black Nationalist,2017,Cleveland,41.4767,-81.6805
Nation of Islam,South Carolina,Black Nationalist,2017,Columbia,34.037,-80.9042
Nation of Islam,California,Black Nationalist,2017,Compton,33.893,-118.2275
Nation of Islam,Texas,Black Nationalist,2017,Dallas,32.7937,-96.7662
Nation of Islam,Ohio,Black Nationalist,2017,Dayton,39.7797,-84.1998
Nation of Islam,Colorado,Black Nationalist,2017,Denver,39.7621,-104.8759
Nation of Islam,Michigan,Black Nationalist,2017,Detroit,42.3834,-83.1024
Nation of Islam,North Carolina,Black Nationalist,2017,Durham,35.9797,-78.9037
Nation Of Islam,Illinois,Black Nationalist,2017,East Saint Louis,38.6155,-90.1304
Nation of Islam,Florida,Black Nationalist,2017,Fort Lauderdale,26.1412,-80.1464
Nation of Islam,Texas,Black Nationalist,2017,Fort Worth,32.7814,-97.3473
Nation of Islam,Michigan,Black Nationalist,2017,Grand Rapids,42.9615,-85.6557
Nation of Islam,North Carolina,Black Nationalist,2017,Greensboro,36.0956,-79.8269
Nation of Islam,South Carolina,Black Nationalist,2017,Greenville,34.8363,-82.365
Nation of Islam,Pennsylvania,Black Nationalist,2017,Harrisburg,40.2752,-76.8843
Nation of Islam,Mississippi,Black Nationalist,2017,Holly Springs,34.7768,-89.4466
Nation of Islam,Texas,Black Nationalist,2017,Houston,29.7868,-95.3905
Nation of Islam,Indiana,Black Nationalist,2017,Indianapolis,39.7771,-86.1458
Nation of Islam,Florida,Black Nationalist,2017,Jacksonville,30.3322,-81.6749
Nation of Islam,Missouri,Black Nationalist,2017,Kansas City,39.1239,-94.5541
Nation of Islam,Kentucky,Black Nationalist,2017,Lexington,38.0423,-84.4587
Nation of Islam,Arkansas,Black Nationalist,2017,Little Rock,34.7255,-92.3581
Nation of Islam,California,Black Nationalist,2017,Los Angeles,34.1139,-118.4068
Nation of Islam,Kentucky,Black Nationalist,2017,Louisville,38.1662,-85.6488
Nation of Islam,Tennessee,Black Nationalist,2017,Memphis,35.1047,-89.9773
Nation of Islam,Florida,Black Nationalist,2017,Miami,25.784,-80.2102
Nation of Islam,Wisconsin,Black Nationalist,2017,Milwaukee,43.064,-87.9669
Nation of Islam,Alabama,Black Nationalist,2017,Mobile,30.6783,-88.1162
Nation of Islam,Louisiana,Black Nationalist,2017,Monroe,32.5184,-92.0774
Nation of Islam,Alabama,Black Nationalist,2017,Montgomery,32.347,-86.2663
Nation of Islam,New Jersey,Black Nationalist,2017,New Brunswick,40.487,-74.445
Nation of Islam,Louisiana,Black Nationalist,2017,New Orleans,30.0687,-89.9288
Nation of Islam,New Jersey,Black Nationalist,2017,Newark,40.7245,-74.1725
Nation of Islam,Virginia,Black Nationalist,2017,Norfolk,36.8945,-76.259
Nation of Islam,California,Black Nationalist,2017,Oakland,37.7903,-122.2165
Nation of Islam,Oklahoma,Black Nationalist,2017,Oklahoma City,35.4676,-97.5136
Nation of Islam,Florida,Black Nationalist,2017,Pensacola,30.4427,-87.1886
Nation of Islam,Pennsylvania,Black Nationalist,2017,Philadelphia,40.0076,-75.134
Nation of Islam,Arizona,Black Nationalist,2017,Phoenix,33.5722,-112.0891
Nation of Islam,Arkansas,Black Nationalist,2017,Pine Bluff,34.2116,-92.0178
Nation of Islam,Florida,Black Nationalist,2017,Pine Hills,28.5818,-81.4692
Nation of Islam,New Jersey,Black Nationalist,2017,Plainfield,40.6154,-74.4157
Nation of Islam,North Carolina,Black Nationalist,2017,Raleigh,35.8323,-78.6439
Nation of Islam,California,Black Nationalist,2017,Rialto,34.1128,-117.3885
Nation of Islam,Virginia,Black Nationalist,2017,Richmond,37.5295,-77.4756
Nation of Islam,New York,Black Nationalist,2017,Rochester,43.168,-77.6162
Nation of Islam,Illinois,Black Nationalist,2017,Rockford,42.2598,-89.0641
Nation of Islam,Florida,Black Nationalist,2017,Saint Petersburg,27.793,-82.6652
Nation of Islam,California,Black Nationalist,2017,San Diego,32.8312,-117.1226
Nation of Islam,Washington,Black Nationalist,2017,Seattle,47.6211,-122.3244
Nation of Islam,Louisiana,Black Nationalist,2017,Shreveport,32.4659,-93.7959
Nation of Islam,Mississippi,Black Nationalist,2017,Southaven,34.9514,-89.9787
Nation of Islam,Massachusetts,Black Nationalist,2017,Springfield,42.1155,-72.5395
Nation Of Islam,California,Black Nationalist,2017,Stockton,37.9766,-121.3112
Nation of Islam,Georgia,Black Nationalist,2017,Stone Mountain,33.8034,-84.1724
Nation of Islam,Florida,Black Nationalist,2017,Tampa,27.9937,-82.4454
Nation of Islam,Ohio,Black Nationalist,2017,Toledo,41.6639,-83.5822
Nation of Islam,New Jersey,Black Nationalist,2017,Trenton,40.2237,-74.764
Nation of Islam,Arizona,Black Nationalist,2017,Tucson,32.1546,-110.8782
Nation of Islam,Oklahoma,Black Nationalist,2017,Tulsa,36.1284,-95.9042
Nation of Islam,District of Columbia,Black Nationalist,2017,Washington,38.9047,-77.0163
Nation of Islam,Pennsylvania,Black Nationalist,2017,Wilkinsburg,40.4442,-79.8733
Nation of Islam,New Jersey,Black Nationalist,2017,Willingboro,40.0279,-74.8691
Nation of Islam,North Carolina,Black Nationalist,2017,Wilmington,34.21,-77.886
Nation of Islam,Delaware,Black Nationalist,2017,Wilmington,39.7415,-75.5413
Nation of Islam San Antonio Study Group,Texas,Black Nationalist,2017,San Antonio,29.4722,-98.5247
Nation OF KINGS AND PRIESTS,Florida,Black Nationalist,2017,Orlando,28.4788,-81.342
National Alliance,West Virginia,Neo-Nazi,2017,Hillsboro,38.1353,-80.2136
National Alliance Reform and Restoration Group,Nevada,Neo-Nazi,2017,Carson City,39.1512,-119.7474
National Policy Institute,Virginia,White Nationalist,2017,Alexandria,38.8185,-77.0861
National Socialist German Workers Party,Nebraska,Neo-Nazi,2017,Lincoln,40.8098,-96.6802
National Socialist Movement,Ohio,Neo-Nazi,2017,Columbus,39.986,-82.9852
National Socialist Movement,Michigan,Neo-Nazi,2017,Detroit,42.3834,-83.1024
National Socialist Movement,South Carolina,Neo-Nazi,2017,Myrtle Beach,33.7096,-78.8843
National Socialist Movement,Oregon,Neo-Nazi,2017,Salem,44.9232,-123.0245
National Socialist Movement,Arizona,Neo-Nazi,2017,Tucson,32.1546,-110.8782
New Black Panther Party,Georgia,Black Nationalist,2017,Atlanta,33.7626,-84.4228
New Black Panther Party,Louisiana,Black Nationalist,2017,Baton Rouge,30.4423,-91.1314
New Black Panther Party,Texas,Black Nationalist,2017,Dallas,32.7937,-96.7662
New Black Panther Party,Ohio,Black Nationalist,2017,Dayton,39.7797,-84.1998
New Black Panther Party,Texas,Black Nationalist,2017,Houston,29.7868,-95.3905
New Black Panther Party,Tennessee,Black Nationalist,2017,Nashville,36.1714,-86.7844
New Black Panther Party,Louisiana,Black Nationalist,2017,New Orleans,30.0687,-89.9288
New Black Panther Party,Georgia,Black Nationalist,2017,Rome,34.2662,-85.1862
New Black Panther Party,Washington,Black Nationalist,2017,Seattle,47.6211,-122.3244
New Black Panther Party,Illinois,Black Nationalist,2017,Springfield,39.7712,-89.6539
New Black Panther Party for Self Defense,Georgia,Black Nationalist,2017,Atlanta,33.7626,-84.4228
New Black Panther Party for Self Defense,Texas,Black Nationalist,2017,Houston,29.7868,-95.3905
New Black Panther Party for Self Defense,Florida,Black Nationalist,2017,Jacksonville,30.3322,-81.6749
New Black Panther Party for Self Defense,Kentucky,Black Nationalist,2017,Louisville,38.1662,-85.6488
New Black Panther Party for Self Defense,Missouri,Black Nationalist,2017,Saint Louis,38.6358,-90.2451
New Black Panther Party for Self Defense,Florida,Black Nationalist,2017,Tallahassee,30.455,-84.2526
New Black Panther Party for Self Defense,Florida,Black Nationalist,2017,Tampa,27.9937,-82.4454
New Black Panther Party for Self Defense,Georgia,Black Nationalist,2017,Waycross,31.2108,-82.358
New Order,Wisconsin,Neo-Nazi,2017,Milwaukee,43.064,-87.9669
Non-Universal Teaching Ministries/Christogenea,Florida,Christian Identity,2017,Panama City,30.1997,-85.6003
Nordic Order Knights of the Ku Klux Klan,Kentucky,Ku Klux Klan,2017,Dawson Springs,37.174,-87.688
North Carolina Pastors Network,North Carolina,Anti-Muslim,2017,Morganton,35.7407,-81.7002
North Carolinians for Immigration Reform and Enforcement,North Carolina,Anti-Immigrant,2017,Wade,35.1639,-78.7371
Northern Hammerskins,Michigan,Racist Skinhead,2017,Detroit,42.3834,-83.1024
Northwest Front,Washington,White Nationalist,2017,Bremerton,47.5436,-122.7122
NS Publications,Michigan,Neo-Nazi,2017,Wyandotte,42.2113,-83.1558
NSM88 Records,Michigan,Hate Music,2017,Detroit,42.3834,-83.1024
Occidental Dissent,Alabama,White Nationalist,2017,Eufaula,31.9102,-85.1505
Occidental Observer,California,White Nationalist,2017,Laguna Hills,33.592,-117.6992
Occidental Quarterly/Charles Martel Society,Georgia,White Nationalist,2017,Atlanta,33.7626,-84.4228
Official Street Preachers,California,General Hate,2017,Los Angeles,34.1139,-118.4068
OneBody in Yahawashi,Texas,Black Nationalist,2017,Dallas,32.7937,-96.7662
Operation Homeland,Virginia,White Nationalist,2017,Alexandria,38.8185,-77.0861
Oregonians for Immigration Reform,Oregon,Anti-Immigrant,2017,McMinnville,45.211,-123.1918
Original Knight Riders Knights of the KKK,West Virginia,Ku Klux Klan,2017,Beckley,37.7878,-81.1841
Original Knights of America Knights of the KKK,Mississippi,Ku Klux Klan,2017,Philadelphia,32.7761,-89.1221
Our Place Fellowship,Washington,Christian Identity,2017,Colville,48.5454,-117.8986
Ozark Craft LC,Arkansas,General Hate,2017,Harrison,36.2437,-93.1197
Pace Confederate Depot,Mississippi,Neo-Confederate,2017,Baldwyn,34.5071,-88.6416
Pacific Coast Knights of the Ku Klux Klan,Michigan,Ku Klux Klan,2017,Alpena,45.074,-83.4399
Pacific Coast Knights of the Ku Klux Klan,Washington,Ku Klux Klan,2017,Spokane,47.6671,-117.433
Pacific Justice Institute,California,Anti-LGBT,2017,Sacramento,38.5667,-121.4683
Pass the Salt Ministries,Ohio,Anti-LGBT,2017,Hebron,39.9644,-82.4898
Patriot Front,Illinois,White Nationalist,2017,Chicago,41.8373,-87.6861
Patriotic Brigade Knights of the Ku Klux Klan,Texas,Ku Klux Klan,2017,Gladewater,32.5435,-94.9452
Patriotic Flags,South Carolina,White Nationalist,2017,Charleston,32.8137,-79.9643
Pig Blood Bullets,Idaho,Anti-Muslim,2017,Priest River,48.1782,-116.8841
Pilgrims Covenant Church,Wisconsin,Anti-LGBT,2017,Monroe,42.6026,-89.6374
Pioneer Little Europe Kalispell Montana,Montana,White Nationalist,2017,Kalispell,48.2155,-114.3262
Poker Face,Pennsylvania,Hate Music,2017,Allentown,40.5961,-75.4756
The Political Cesspool,Tennessee,White Nationalist,2017,Bartlett,35.2337,-89.8195
Political Islam,Tennessee,Anti-Muslim,2017,Nashville,36.1714,-86.7844
The Pray in Jesus Name Project,Colorado,Anti-LGBT,2017,Colorado Springs,38.8674,-104.7606
Probe Ministries,Texas,Anti-LGBT,2017,Plano,33.0502,-96.7487
Proclaiming Justice to the Nations,Tennessee,Anti-Muslim,2017,Franklin,35.9214,-86.8524
ProEnglish,Virginia,Anti-Immigrant,2017,Arlington,38.8786,-77.1011
Proud Boys,Texas,General Hate,2017,Dallas,32.7937,-96.7662
Proud Boys,New York,General Hate,2017,New York,40.6943,-73.9249
Public Advocate of the United States,Virginia,Anti-LGBT,2017,Merrifield,38.8731,-77.2426
PzG Inc.,South Dakota,Neo-Nazi,2017,Rapid City,44.0716,-103.2205
Racial Nationalist Party of America,New York,White Nationalist,2017,Lockport,43.1698,-78.6956
Radix Journal,Montana,White Nationalist,2017,Whitefish,48.4332,-114.3592
Real Republic of Florida,Florida,White Nationalist,2017,Tallahassee,30.455,-84.2526
Rebel Brigade Knights of the True Invisible Empire,Virginia,Ku Klux Klan,2017,Martinsville,36.6827,-79.8636
Red Ice,South Carolina,White Nationalist,2017,Charleston,32.8137,-79.9643
Reformation-Bible Puritan-Baptist Church/Vatican Assassins,Pennsylvania,General Hate,2017,Newmanstown,40.3514,-76.2117
Refugee Resettlement Watch,Maryland,Anti-Muslim,2017,Fairplay,39.5357,-77.7463
Religious Freedom Coalition,District of Columbia,Anti-Muslim,2017,Washington,38.9047,-77.0163
The Remembrance Project,District of Columbia,Anti-Immigrant,2017,Washington,38.9047,-77.0163
The Remnant,Minnesota,Radical Traditional Catholicism,2017,Forest Lake,45.2536,-92.9583
Rense Radio Network,Oregon,General Hate,2017,Ashland,42.1905,-122.6992
Resistance Records,Illinois,Hate Music,2017,Chicago,41.8373,-87.6861
Respect Washington,Washington,Anti-Immigrant,2017,Seattle,47.6211,-122.3244
Return of Kings,District of Columbia,General Hate,2017,Washington,38.9047,-77.0163
Revolutionary Black Panther Party,Wisconsin,Black Nationalist,2017,Milwaukee,43.064,-87.9669
Revolutionary Black Panther Party,North Carolina,Black Nationalist,2017,Wilmington,34.21,-77.886
Rise Above Movement,California,White Nationalist,2017,Huntington Beach,33.696,-118.0025
Robert Sungenis,Pennsylvania,Radical Traditional Catholicism,2017,State Line,39.7329,-77.7247
RootBocks,Indiana,White Nationalist,2017,Paoli,38.5572,-86.4699
Ruth Institute,Louisiana,Anti-LGBT,2017,Lake Charles,30.203,-93.215
Sacred Truth Publishing & Ministries,Tennessee,Christian Identity,2017,Mountain City,36.4695,-81.8049
Samanta Roy Institute of Science and Technology,Wisconsin,General Hate,2017,Shawano,44.7749,-88.5844
San Diegans for Secure Borders,California,Anti-Immigrant,2017,San Diego,32.8312,-117.1226
Save California,California,Anti-LGBT,2017,Sacramento,38.5667,-121.4683
Scott-Townsend Publishers,District of Columbia,White Nationalist,2017,Washington,38.9047,-77.0163
Scriptures for America Worldwide Ministries,Colorado,Christian Identity,2017,Laporte,40.6385,-105.1444
Secure Michigan,Michigan,Anti-Muslim,2017,New Baltimore,42.6903,-82.7398
Security Studies Group,District of Columbia,Anti-Muslim,2017,Washington,38.9047,-77.0163
Sharkhunters International,Florida,General Hate,2017,Hernando,28.9451,-82.3781
The Shoebat Foundation,Pennsylvania,Anti-Muslim,2017,Newtown,40.229,-74.9324
Sicarii 1715,California,Black Nationalist,2017,San Diego,32.8312,-117.1226
Sicarii 1715,Washington,Black Nationalist,2017,Seattle,47.6211,-122.3244
Silver Bullet Gun Oil,Virginia,Anti-Muslim,2017,Courtland,36.7123,-77.062
The Social Contract Press,Michigan,White Nationalist,2017,Petoskey,45.3649,-84.9887
Soldiers of Odin,Texas,Anti-Muslim,2017,Beaumont,30.0849,-94.1451
Soldiers of Odin,Arizona,Anti-Muslim,2017,Flagstaff,35.1872,-111.6195
Soldiers of Odin,Texas,Anti-Muslim,2017,Houston,29.7868,-95.3905
Soldiers of Odin,Texas,Anti-Muslim,2017,San Antonio,29.4722,-98.5247
Soldiers of Odin,Colorado,Anti-Muslim,2017,Denver,39.7621,-104.8759
Sons of Liberty Media (formerly You Can Run But You Cannot Hide),Minnesota,General Hate,2017,Annandale,45.2598,-94.1205
Southeast Michigan Tea Party,Michigan,Anti-Muslim,2017,Utica,42.629,-83.0218
Southern Future,South Carolina,Neo-Confederate,2017,Aiken,33.5303,-81.727
Stahlhelm Records,Wisconsin,Hate Music,2017,Milwaukee,43.064,-87.9669
Stedfast Baptist Church,Texas,Anti-LGBT,2017,Fort Worth,32.7814,-97.3473
Stedfast Baptist Church,Florida,Anti-LGBT,2017,Jacksonville,30.3322,-81.6749
Stormfront,Florida,White Nationalist,2017,West Palm Beach,26.7467,-80.1314
The Straight Way and More,Florida,Anti-Muslim,2017,Venice,27.1166,-82.4135
Team America Political Action Committee,Colorado,Anti-Immigrant,2017,Littleton,39.5911,-105.0194
Tennessee Eagle Forum,Tennessee,Anti-Muslim,2017,Nashville,36.1714,-86.7844
Texans for Immigration Reduction and Enforcement,Texas,Anti-Immigrant,2017,Houston,29.7868,-95.3905
Texas Rebel Knights of the KKK,Texas,Ku Klux Klan,2017,Quinlan,32.909,-96.1312
The New Byzantium Project,Virginia,White Nationalist,2017,Charlottesville,38.0375,-78.4855
The Realist Report,California,Holocaust Denial,2017,Poway,32.9871,-117.0201
The Revolutionary Black Panther Party,Illinois,Black Nationalist,2017,Chicago,41.8373,-87.6861
The Right Stuff,Georgia,White Nationalist,2017,Atlanta,33.7626,-84.4228
The Right Stuff,Texas,White Nationalist,2017,Austin,30.3006,-97.7517
The Right Stuff,Maryland,White Nationalist,2017,Baltimore,39.3051,-76.6144
The Right Stuff,New York,White Nationalist,2017,Hopewell Junction,41.5787,-73.8078
The Right Stuff,Texas,White Nationalist,2017,Houston,29.7868,-95.3905
The Right Stuff,Nevada,White Nationalist,2017,Las Vegas,36.2291,-115.2607
The Right Stuff,New York,White Nationalist,2017,New York,40.6943,-73.9249
The Right Stuff,Nebraska,White Nationalist,2017,Omaha,41.2628,-96.0495
The Right Stuff,Pennsylvania,White Nationalist,2017,Pittsburgh,40.4396,-79.9763
The Right Stuff,District of Columbia,White Nationalist,2017,Washington,38.9047,-77.0163
Third Reich Books,Nebraska,Neo-Nazi,2017,Fairbury,40.1438,-97.1765
Tightrope,Arkansas,Hate Music,2017,Calico Rock,36.1399,-92.1337
Tom Brown Ministries,Texas,Anti-LGBT,2017,El Paso,31.8479,-106.4309
Tony Alamo Christian Ministries,New York,General Hate,2017,New York,40.6943,-73.9249
Tradition in Action,California,Radical Traditional Catholicism,2017,Los Angeles,34.1139,-118.4068
Traditional Values Coalition,California,Anti-LGBT,2017,Anaheim,33.839,-117.8572
Traditional Values Coalition,District of Columbia,Anti-LGBT,2017,Washington,38.9047,-77.0163
Traditionalist American Knights of the KKK,South Dakota,Ku Klux Klan,2017,Custer,43.7677,-103.5989
Traditionalist Youth Network,Indiana,White Nationalist,2017,Paoli,38.5572,-86.4699
True Light Pentecost Church,South Carolina,Anti-LGBT,2017,Spartanburg,34.9437,-81.9257
Truth in History,Oklahoma,Christian Identity,2017,Owasso,36.2886,-95.8319
Truth in Love Project,Washington,Anti-Muslim,2017,Chattaroy,47.8896,-117.3577
Truth in Textbooks,Texas,Anti-Muslim,2017,Boerne,29.7845,-98.7291
Tyr 1 Security,Virginia,White Nationalist,2017,Alexandria,38.8185,-77.0861
Unconstrained Analytics,District of Columbia,Anti-Muslim,2017,Washington,38.9047,-77.0163
Understanding the Threat,Texas,Anti-Muslim,2017,Dallas,32.7937,-96.7662
United Dixie White Knights of the Ku Klux Klan,Mississippi,Ku Klux Klan,2017,Leakesville,31.1545,-88.558
United Families International,Arizona,Anti-LGBT,2017,Gilbert,33.3103,-111.7463
United Kingdom of Israel Congregation,Illinois,Black Nationalist,2017,Chicago,41.8373,-87.6861
United Kingdom of Israel Congregation,Virginia,Black Nationalist,2017,Hampton,37.0551,-76.3629
United Klans of America,Alabama,Ku Klux Klan,2017,Ashland,33.2704,-85.8337
United Klans of America,Tennessee,Ku Klux Klan,2017,McMinnville,35.6863,-85.7812
United Northern and Southern Knights of the KKK,Indiana,Ku Klux Klan,2017,Connersville,39.6582,-85.141
United Northern and Southern Knights of the KKK,Georgia,Ku Klux Klan,2017,Ellijay,34.6912,-84.484
United Nuwaubian Nation of Moors/All Eyes on Egipt,Connecticut,Black Nationalist,2017,Hartford,41.7661,-72.6834
United Nuwaubian Nation of Moors/All Eyes on Egipt,Georgia,Black Nationalist,2017,Thomaston,32.8907,-84.3272
United Riot Records,New York,Hate Music,2017,New York,40.6943,-73.9249
The United West,Florida,Anti-Muslim,2017,Lake Worth,26.6194,-80.059
United White Knights of the KKK,Texas,Ku Klux Klan,2017,New Boston,33.4607,-94.4177
US Border Guard,Arizona,Anti-Immigrant,2017,Mesa,33.4017,-111.7181
Vanguard America,Connecticut,Neo-Nazi,2017,Hartford,41.7661,-72.6834
Vanguard News Network,Missouri,Neo-Nazi,2017,Kirksville,40.1986,-92.5753
The Varangians Fight Club,Tennessee,Neo-Volkisch,2017,Knoxville,35.9692,-83.9495
VDARE Foundation,Virginia,White Nationalist,2017,Warrenton,38.7176,-77.7975
Verity Baptist Church,California,Anti-LGBT,2017,Sacramento,38.5667,-121.4683
Verity Baptist Church,Washington,Anti-LGBT,2017,Vancouver,45.6352,-122.597
War On The Horizon,District of Columbia,Black Nationalist,2017,Washington,38.9047,-77.0163
Warrior's Pride Clothing,California,Racist Skinhead,2017,Bakersfield,35.353,-119.036
Washington Summit Publishers,Georgia,White Nationalist,2017,Augusta,33.3645,-82.0708
Westboro Baptist Church,Kansas,Anti-LGBT,2017,Topeka,39.0346,-95.6956
Western Outlands Supply Company,Arizona,White Nationalist,2017,Mesa,33.4017,-111.7181
White Aryan Resistance,California,Neo-Nazi,2017,San Jacinto,33.797,-116.9915
White Knights of the Ku Klux Klan of America,Mississippi,Ku Klux Klan,2017,Tupelo,34.2691,-88.7318
White Knights of the Ku Klux Klan of America,Washington,Ku Klux Klan,2017,Vancouver,45.6352,-122.597
White Rabbit Radio,Michigan,White Nationalist,2017,Dearborn Heights,42.3164,-83.2769
Wolf Age,California,Neo-Volkisch,2017,Grass Valley,39.2237,-121.0521
Wolf Tyr Productions,New York,Hate Music,2017,Holbrook,40.7944,-73.0707
Wolves of Vinland,Virginia,Neo-Volkisch,2017,Lynchburg,37.4003,-79.1908
World Congress of Families/International Organization for the Family,Illinois,Anti-LGBT,2017,Rockford,42.2598,-89.0641
Yahushua Dual Seed Christian Identity Ministry,Texas,Christian Identity,2017,Livingston,30.71,-94.9381
