title,state_name,ideology,year,city,lat,lon
14 Words Press,North Carolina,White Nationalist,2006,Wilmington,34.21,-77.886
AC Skins,New Jersey,Racist Skinhead,2006,Atlantic City,39.3797,-74.4527
AC Skins,New Jersey,Racist Skinhead,2006,Somers Point,39.3167,-74.6066
Alliance for Catholic Tradition,West Virginia,Radical Traditional Catholicism,2006,Summersville,38.2865,-80.841
America's Promise Ministries,Idaho,Christian Identity,2006,Sandpoint,48.2832,-116.5613
American Border Patrol,Arizona,Anti-Immigrant,2006,Sierra Vista,31.563,-110.3153
American Front,Florida,Racist Skinhead,2006,Orlando,28.4788,-81.342
American Front,California,Racist Skinhead,2006,Sacramento,38.5667,-121.4683
American Immigration Control Foundation / Americans for Immigration Control,Virginia,Anti-Immigrant,2006,Monterey,38.4116,-79.5809
American National Socialist Workers Party,Alabama,Neo-Nazi,2006,Auburn,32.6084,-85.4897
American National Socialist Workers Party,Kentucky,Neo-Nazi,2006,Brooks,38.0661,-85.7176
American National Socialist Workers Party,Missouri,Neo-Nazi,2006,Conway,37.5057,-92.8312
American National Socialist Workers Party,Maryland,Neo-Nazi,2006,Elkridge,39.1941,-76.7427
American National Socialist Workers Party,Michigan,Neo-Nazi,2006,Jackson,42.2431,-84.4038
American National Socialist Workers Party,Georgia,Neo-Nazi,2006,Pembroke,32.1456,-81.6187
American National Socialist Workers Party,Arizona,Neo-Nazi,2006,Phoenix,33.5722,-112.0891
American National Socialist Workers Party,Virginia,Neo-Nazi,2006,Roanoke,37.2785,-79.958
American National Socialist Workers Party,Florida,Neo-Nazi,2006,Sarasota,27.3391,-82.5439
American National Socialist Workers Party,Oklahoma,Neo-Nazi,2006,Tulsa,36.1284,-95.9042
American National Socialist Workers Party,Ohio,Neo-Nazi,2006,Wilmington,39.4387,-83.8184
American Nationalist Union,Pennsylvania,White Nationalist,2006,Allison Park,40.573,-79.9603
American Nazi Party,Michigan,Neo-Nazi,2006,Westland,42.3192,-83.3805
American Reformation Ministries,Arkansas,Christian Identity,2006,Malvern,34.3689,-92.8187
American Renaissance/New Century Foundation,Virginia,White Nationalist,2006,Arlington,38.8786,-77.1011
American Renaissance/New Century Foundation,Illinois,White Nationalist,2006,Chicago,41.8373,-87.6861
American Renaissance/New Century Foundation,Virginia,White Nationalist,2006,Oakton,38.8887,-77.3017
American Thule Society,Pennsylvania,Neo-Nazi,2006,Cleona,40.3385,-76.477
American Thule Society,Virginia,Neo-Nazi,2006,Richmond,37.5295,-77.4756
American Vision,Georgia,Anti-LGBT,2006,Powder Springs,33.866,-84.6838
American White Knights of the KKK,Georgia,Ku Klux Klan,2006,Cordele,31.9563,-83.7694
American White Knights of the KKK,Texas,Ku Klux Klan,2006,San Angelo,31.4426,-100.4501
American White Knights of the KKK,Texas,Ku Klux Klan,2006,Sherman,33.6266,-96.6195
Americans for Self Determination,Virginia,White Nationalist,2006,Falls Church,38.8847,-77.1751
Artisan Publishers,Oklahoma,General Hate,2006,Muskogee,35.743,-95.3566
Aryan Anarchist Skins,Illinois,Racist Skinhead,2006,Mount Morris,42.0487,-89.4295
Aryan Covenant Church/ACC Services,Texas,Christian Identity,2006,Anderson,30.4871,-95.99
Aryan Nations,Wisconsin,Neo-Nazi,2006,Appleton,44.2774,-88.3894
Aryan Nations,Texas,Neo-Nazi,2006,Bellmead,31.6025,-97.0896
Aryan Nations,Oklahoma,Neo-Nazi,2006,Bixby,35.9454,-95.8774
Aryan Nations,California,Neo-Nazi,2006,Chino,33.9836,-117.6653
Aryan Nations,Georgia,Neo-Nazi,2006,Conyers,33.6645,-83.9967
Aryan Nations,Texas,Neo-Nazi,2006,Houston,29.7868,-95.3905
Aryan Nations,Pennsylvania,Neo-Nazi,2006,Lemoyne,40.2442,-76.8991
Aryan Nations,Maine,Neo-Nazi,2006,Lewiston,44.0915,-70.1681
Aryan Nations,Alabama,Neo-Nazi,2006,Lincoln,33.5935,-86.1372
Aryan Nations,Arkansas,Neo-Nazi,2006,London,35.328,-93.2417
Aryan Nations,New Jersey,Neo-Nazi,2006,Midland Park,40.9952,-74.1411
Aryan Nations,South Carolina,Neo-Nazi,2006,Moncks Corner,33.1715,-80.0122
Aryan Nations,Alabama,Neo-Nazi,2006,Selma,32.4166,-87.0336
Aryan Nations,Washington,Neo-Nazi,2006,Spokane,47.6671,-117.433
Aryan Nations,Washington,Neo-Nazi,2006,Tacoma,47.2431,-122.4531
Aryan Nations,New Jersey,Neo-Nazi,2006,Toms River,39.9931,-74.1856
Aryan Nations,South Carolina,Neo-Nazi,2006,Lexington,33.9866,-81.222
Aryan Raiders,Alabama,Neo-Nazi,2006,Alexander City,32.9242,-85.9361
Aryan Wear,Texas,White Nationalist,2006,Keller,32.9337,-97.2255
Barnes Review/Foundation for Economic Liberty Inc,District of Columbia,Holocaust Denial,2006,Washington,38.9047,-77.0163
Bay Area Skinheads,California,Racist Skinhead,2006,San Francisco,37.7562,-122.443
Bayou Knights of the KKK,Louisiana,Ku Klux Klan,2006,Denham Springs,30.4743,-90.9594
Bayou Knights of the KKK,Arkansas,Ku Klux Klan,2006,East Camden,33.608,-92.7426
Bayou Knights of the KKK,Louisiana,Ku Klux Klan,2006,Homer,32.793,-93.0582
Bayou Knights of the KKK,Mississippi,Ku Klux Klan,2006,Kiln,30.4171,-89.4322
Bayou Knights of the KKK,Louisiana,Ku Klux Klan,2006,Mansfield,32.0355,-93.7004
Bayou Knights of the KKK,Texas,Ku Klux Klan,2006,Midlothian,32.4719,-96.9877
Bayou Knights of the KKK,Oklahoma,Ku Klux Klan,2006,Shawnee,35.3525,-96.9647
Bayou Knights of the KKK,Arkansas,Ku Klux Klan,2006,Smackover,33.3636,-92.7314
Bergen County Hooligans,New Jersey,Racist Skinhead,2006,Garfield,40.8791,-74.1085
Bergen County Hooligans,New Jersey,Racist Skinhead,2006,Lodi,40.8784,-74.0815
Bergen County Hooligans,New Jersey,Racist Skinhead,2006,Rutherford,40.8203,-74.1057
Bergen County Hooligans,New Jersey,Racist Skinhead,2006,Wallington,40.8535,-74.1069
Blood and Honour,Texas,Racist Skinhead,2006,Richardson,32.9717,-96.7092
Blood and Honour,Ohio,Racist Skinhead,2006,Salem,40.9049,-80.8491
Border Guardians,Texas,Anti-Immigrant,2006,Livingston,30.71,-94.9381
Brotherhood of Klans Knights of the KKK,Oklahoma,Ku Klux Klan,2006,Atoka,34.3856,-96.1313
Brotherhood of Klans Knights of the KKK,Illinois,Ku Klux Klan,2006,Beardstown,39.9996,-90.4181
Brotherhood of Klans Knights of the KKK,Illinois,Ku Klux Klan,2006,Berwyn,41.8433,-87.7909
Brotherhood of Klans Knights of the KKK,Oklahoma,Ku Klux Klan,2006,Cement,34.9362,-98.1363
Brotherhood of Klans Knights of the KKK,Oklahoma,Ku Klux Klan,2006,Coalgate,34.5323,-96.2208
Brotherhood of Klans Knights of the KKK,Ohio,Ku Klux Klan,2006,Columbus,39.986,-82.9852
Brotherhood of Klans Knights of the KKK,California,Ku Klux Klan,2006,Crescent City,41.7727,-124.1902
Brotherhood of Klans Knights of the KKK,Ohio,Ku Klux Klan,2006,Dayton,39.7797,-84.1998
Brotherhood of Klans Knights of the KKK,Tennessee,Ku Klux Klan,2006,Decaturville,35.582,-88.1195
Brotherhood of Klans Knights of the KKK,Tennessee,Ku Klux Klan,2006,Dunlap,35.3675,-85.3899
Brotherhood of Klans Knights of the KKK,North Carolina,Ku Klux Klan,2006,Elizabethtown,34.6239,-78.6097
Brotherhood of Klans Knights of the KKK,Vermont,Ku Klux Klan,2006,Hardwick,44.5022,-72.3654
Brotherhood of Klans Knights of the KKK,Tennessee,Ku Klux Klan,2006,Henderson,35.4446,-88.6531
Brotherhood of Klans Knights of the KKK,Tennessee,Ku Klux Klan,2006,Hickory Valley,35.1549,-89.126
Brotherhood of Klans Knights of the KKK,Oklahoma,Ku Klux Klan,2006,Hinton,35.4797,-98.3589
Brotherhood of Klans Knights of the KKK,Wisconsin,Ku Klux Klan,2006,Hurley,46.4468,-90.1993
Brotherhood of Klans Knights of the KKK,Michigan,Ku Klux Klan,2006,Ironwood,46.4522,-90.1505
Brotherhood of Klans Knights of the KKK,Oregon,Ku Klux Klan,2006,La Pine,43.6866,-121.4856
Brotherhood of Klans Knights of the KKK,Texas,Ku Klux Klan,2006,Lake Jackson,29.0516,-95.4522
Brotherhood of Klans Knights of the KKK,Indiana,Ku Klux Klan,2006,Lakeville,41.5285,-86.2744
Brotherhood of Klans Knights of the KKK,Ohio,Ku Klux Klan,2006,Lancaster,39.7249,-82.6049
Brotherhood of Klans Knights of the KKK,Ohio,Ku Klux Klan,2006,Marion,40.5933,-83.1236
Brotherhood of Klans Knights of the KKK,Oklahoma,Ku Klux Klan,2006,Moyers,34.3262,-95.6536
Brotherhood of Klans Knights of the KKK,Iowa,Ku Klux Klan,2006,Nevada,42.0185,-93.4637
Brotherhood of Klans Knights of the KKK,Nebraska,Ku Klux Klan,2006,Omaha,41.2628,-96.0495
Brotherhood of Klans Knights of the KKK,Vermont,Ku Klux Klan,2006,Rutland,43.6091,-72.9782
Brotherhood of Klans Knights of the KKK,California,Ku Klux Klan,2006,San Luis Obispo,35.2671,-120.6689
Brotherhood of Klans Knights of the KKK,California,Ku Klux Klan,2006,Soledad,36.4434,-121.3431
Brotherhood of Klans Knights of the KKK,Illinois,Ku Klux Klan,2006,Troy,38.727,-89.8968
By Yahweh's Design,Michigan,Christian Identity,2006,Stevensville,42.0139,-86.5243
Carolina Skinhead Alliance,North Carolina,Racist Skinhead,2006,High Shoals,35.3957,-81.2048
Castle Hill Publishers,New York,Holocaust Denial,2006,New York,40.6943,-73.9249
"Catholic Apologetics International Publishing, Inc.",Pennsylvania,Radical Traditional Catholicism,2006,State Line,39.7329,-77.7247
Catholic Counterpoint,Pennsylvania,Radical Traditional Catholicism,2006,Broomall,39.9694,-75.3529
Center for Perpetual Diversity,Maryland,White Nationalist,2006,Gaithersburg,39.1347,-77.213
Center for Perpetual Diversity,District of Columbia,White Nationalist,2006,Washington,38.9047,-77.0163
Chalcedon Foundation,California,Anti-LGBT,2006,Vallecito,38.074,-120.4563
Charles Darwin Research Institute,Michigan,White Nationalist,2006,Port Huron,42.9822,-82.4387
Christian Defense League,Louisiana,Neo-Nazi,2006,Mandeville,30.375,-90.0906
Christian Research,Arkansas,Christian Identity,2006,Eureka Springs,36.4105,-93.745
Christian White Knights Church of the KKK,Mississippi,Ku Klux Klan,2006,Petal,31.3477,-89.2359
Church of Jesus Christ Christian/Aryan Nations,Arkansas,Christian Identity,2006,Bergman,36.3128,-93.0115
Church of the Sons of YHVH,Louisiana,Christian Identity,2006,Calhoun,32.5153,-92.3539
Church of the Southern Cross,Mississippi,Christian Identity,2006,Lucedale,30.9312,-88.5959
Church of True Israel,Montana,Christian Identity,2006,Noxon,47.985,-115.7707
Civilian Combat Squad,New Mexico,Racist Skinhead,2006,Albuquerque,35.1053,-106.6464
Condemned Records,California,Hate Music,2006,San Diego,32.8312,-117.1226
Confederate Hammerskins,Texas,Racist Skinhead,2006,Dallas,32.7937,-96.7662
Confederate Hammerskins,Texas,Racist Skinhead,2006,Houston,29.7868,-95.3905
Confederate Hammerskins,Florida,Racist Skinhead,2006,Jacksonville,30.3322,-81.6749
Confederate Hammerskins,Tennessee,Racist Skinhead,2006,Knoxville,35.9692,-83.9495
Confederate Hammerskins,Florida,Racist Skinhead,2006,Orlando,28.4788,-81.342
Confederate Knights of America,New Jersey,Ku Klux Klan,2006,Millville,39.3903,-75.0561
Confederate State Skins,Georgia,Racist Skinhead,2006,Acworth,34.0565,-84.6708
Confederate White Knights of the Ku Klux Klan,Virginia,Ku Klux Klan,2006,Richmond,37.5295,-77.4756
Confederation of Racial Working Class Skinheads,California,Racist Skinhead,2006,Ventura,34.2783,-119.2932
Connecticut White Wolves,Connecticut,Racist Skinhead,2006,Stratford,41.207,-73.1305
Council of Conservative Citizens,Pennsylvania,White Nationalist,2006,Allison Park,40.573,-79.9603
Council of Conservative Citizens,Virginia,White Nationalist,2006,Ashburn,39.03,-77.4711
Council of Conservative Citizens,Louisiana,White Nationalist,2006,Baton Rouge,30.4423,-91.1314
Council of Conservative Citizens,Alabama,White Nationalist,2006,Birmingham,33.5276,-86.7988
Council of Conservative Citizens,Michigan,White Nationalist,2006,Caledonia,42.7945,-85.5153
Council of Conservative Citizens,Mississippi,White Nationalist,2006,Calhoun City,33.8588,-89.3145
Council of Conservative Citizens,South Carolina,White Nationalist,2006,Charleston,32.8137,-79.9643
Council of Conservative Citizens,Illinois,White Nationalist,2006,Chicago,41.8373,-87.6861
Council of Conservative Citizens,North Carolina,White Nationalist,2006,Clemmons,36.0318,-80.3861
Council of Conservative Citizens,Tennessee,White Nationalist,2006,Cleveland,35.1817,-84.8707
Council of Conservative Citizens,Alabama,White Nationalist,2006,Cullman,34.1791,-86.8402
Council of Conservative Citizens,New Jersey,White Nationalist,2006,Fort Lee,40.8509,-73.9712
Council of Conservative Citizens,Tennessee,White Nationalist,2006,Franklin,35.9214,-86.8524
Council of Conservative Citizens,Mississippi,White Nationalist,2006,Greenwood,33.5126,-90.1993
Council of Conservative Citizens,Ohio,White Nationalist,2006,Grove City,39.866,-83.0692
Council of Conservative Citizens,Alabama,White Nationalist,2006,Huntsville,34.6989,-86.6414
Council of Conservative Citizens,Mississippi,White Nationalist,2006,Jackson,32.3163,-90.2124
Council of Conservative Citizens,Florida,White Nationalist,2006,Jacksonville,30.3322,-81.6749
Council of Conservative Citizens,Alabama,White Nationalist,2006,Jasper,33.8514,-87.2719
Council of Conservative Citizens,Tennessee,White Nationalist,2006,Kingsport,36.522,-82.5453
Council of Conservative Citizens,Arkansas,White Nationalist,2006,Little Rock,34.7255,-92.3581
Council of Conservative Citizens,Wisconsin,White Nationalist,2006,Madison,43.0808,-89.3922
Council of Conservative Citizens,Indiana,White Nationalist,2006,Martinsville,39.4227,-86.4208
Council of Conservative Citizens,Tennessee,White Nationalist,2006,Memphis,35.1047,-89.9773
Council of Conservative Citizens,Alabama,White Nationalist,2006,Montgomery,32.347,-86.2663
Council of Conservative Citizens,Louisiana,White Nationalist,2006,New Orleans,30.0687,-89.9288
Council of Conservative Citizens,New York,White Nationalist,2006,New York,40.6943,-73.9249
Council of Conservative Citizens,New York,White Nationalist,2006,Parishville,44.6257,-74.8004
Council of Conservative Citizens,South Carolina,White Nationalist,2006,Saluda,34.0009,-81.7713
Council of Conservative Citizens,Mississippi,White Nationalist,2006,Vaiden,33.3332,-89.7533
Council of Conservative Citizens,South Carolina,White Nationalist,2006,West Columbia,33.9925,-81.0919
Covenant Church of Yahweh,Minnesota,Christian Identity,2006,Pipestone,43.9958,-96.3117
Covenant People's Ministry,Georgia,Christian Identity,2006,Brooks,33.2925,-84.4588
Creativity Movement,Illinois,Neo-Nazi,2006,Bloomington,40.4757,-88.9705
Creativity Movement,Illinois,Neo-Nazi,2006,Chicago,41.8373,-87.6861
Creativity Movement,Florida,Neo-Nazi,2006,Davie,26.079,-80.287
Creativity Movement,Illinois,Neo-Nazi,2006,East Peoria,40.6739,-89.5421
Creativity Movement,New Jersey,Neo-Nazi,2006,Hamilton,40.2071,-74.0813
Creativity Movement,New Jersey,Neo-Nazi,2006,Island Heights,39.9423,-74.1454
Creativity Movement,Illinois,Neo-Nazi,2006,Joliet,41.5193,-88.1501
Creativity Movement,Virginia,Neo-Nazi,2006,Newport News,37.1051,-76.5185
Creativity Movement,Mississippi,Neo-Nazi,2006,Raymond,32.2609,-90.4083
Creativity Movement,New Jersey,Neo-Nazi,2006,Toms River,39.9931,-74.1856
Culture Wars/Fidelity Press,Indiana,Radical Traditional Catholicism,2006,South Bend,41.6771,-86.2692
Desastrious Records,Texas,Hate Music,2006,Springtown,32.9695,-97.6805
Diehard Records,Ohio,Hate Music,2006,Chesapeake,38.4298,-82.4488
Dirty Jersey Hooligans,New Jersey,Racist Skinhead,2006,Morristown,40.7966,-74.4772
Eastern Front Skinheads,New York,Racist Skinhead,2006,New York,40.6943,-73.9249
Eastern Washington Skinheads,Washington,Racist Skinhead,2006,Spokane,47.6671,-117.433
Ecclesiastical Council for the Restoration of Covenant Israel (ECRCI),Illinois,Christian Identity,2006,Chicago,41.8373,-87.6861
Emigration Party of Nevada,Nevada,Anti-Immigrant,2006,Henderson,36.0145,-115.0362
Empire Knights of the KKK,Indiana,Ku Klux Klan,2006,Auburn,41.3666,-85.056
Empire Knights of the KKK,South Carolina,Ku Klux Klan,2006,Gilbert,33.9245,-81.3928
Empire Knights of the KKK,Alabama,Ku Klux Klan,2006,Grove Hill,31.7033,-87.7759
Empire Knights of the KKK,Florida,Ku Klux Klan,2006,Homosassa Springs,28.8118,-82.5392
Empire Knights of the KKK,Texas,Ku Klux Klan,2006,San Angelo,31.4426,-100.4501
Empire Knights of the KKK,Ohio,Ku Klux Klan,2006,Wooster,40.8167,-81.9338
Empire State Skinheads,New York,Racist Skinhead,2006,New York,40.6943,-73.9249
European American Heritage Foundation,Florida,White Nationalist,2006,Bunnell,29.4198,-81.3235
European American Issues Forum,California,White Nationalist,2006,San Bruno,37.6254,-122.4313
European-American Unity and Rights Organization,Ohio,White Nationalist,2006,Cleveland,41.4767,-81.6805
European-American Unity and Rights Organization,South Carolina,White Nationalist,2006,Columbia,34.037,-80.9042
European-American Unity and Rights Organization,Georgia,White Nationalist,2006,Columbus,32.51,-84.8771
European-American Unity and Rights Organization,Texas,White Nationalist,2006,Irving,32.8584,-96.9702
European-American Unity and Rights Organization,Florida,White Nationalist,2006,Jacksonville,30.3322,-81.6749
European-American Unity and Rights Organization,Louisiana,White Nationalist,2006,Mandeville,30.375,-90.0906
European-American Unity and Rights Organization,Tennessee,White Nationalist,2006,Memphis,35.1047,-89.9773
European-American Unity and Rights Organization,Virginia,White Nationalist,2006,Richmond,37.5295,-77.4756
European-American Unity and Rights Organization,Mississippi,White Nationalist,2006,Ripley,34.7321,-88.9444
European-American Unity and Rights Organization,Georgia,White Nationalist,2006,Savannah,32.0282,-81.1786
European-American Unity and Rights Organization,Louisiana,White Nationalist,2006,Shreveport,32.4659,-93.7959
European-American Unity and Rights Organization,Louisiana,White Nationalist,2006,Thibodaux,29.7941,-90.8163
European-American Unity and Rights Organization,Oklahoma,White Nationalist,2006,Tulsa,36.1284,-95.9042
European-American Unity and Rights Organization,South Carolina,White Nationalist,2006,Woodruff,34.7397,-82.0323
Family Research Institute,Colorado,Anti-LGBT,2006,Colorado Springs,38.8674,-104.7606
Fellowship of God's Covenant People,Kentucky,Christian Identity,2006,Burlington,39.0223,-84.7216
Final Stand Records,Delaware,Hate Music,2006,Newark,39.6776,-75.7573
Folk and Faith,Idaho,White Nationalist,2006,Idaho Falls,43.4868,-112.0363
Fraternal White Knights of the KKK,Iowa,Ku Klux Klan,2006,Charles City,43.0644,-92.6745
Free Knights of the KKK,Georgia,Ku Klux Klan,2006,Hiram,33.877,-84.771
Free Knights of the KKK,North Carolina,Ku Klux Klan,2006,Madison,36.3868,-79.975
Free Your Mind Productions,Georgia,Hate Music,2006,Valdosta,30.8503,-83.2789
Fundamentalist Latter Day Saints,Arizona,General Hate,2006,Colorado City,36.9774,-112.983
Fundamentalist Latter Day Saints,Texas,General Hate,2006,Eldorado,30.8617,-100.5979
Fundamentalist Latter Day Saints,Utah,General Hate,2006,Hildale,37.0171,-112.9786
Fundamentalist Latter Day Saints,Colorado,General Hate,2006,Mancos,37.3466,-108.2939
Georgia Knight Riders Knights of the KKK,Georgia,Ku Klux Klan,2006,Bainbridge,30.9046,-84.5722
Georgia Knight Riders Knights of the KKK,Georgia,Ku Klux Klan,2006,Ellijay,34.6912,-84.484
Golden State Skinheads,California,Racist Skinhead,2006,San Luis Obispo,35.2671,-120.6689
Gospel Broadcasting Association,Texas,Christian Identity,2006,Houston,29.7868,-95.3905
Gospel Ministries,Idaho,Christian Identity,2006,Boise,43.6006,-116.2316
Great Tennessee Knights of the KKK,Tennessee,Ku Klux Klan,2006,Telford,36.2534,-82.5478
Griffin Knights of the KKK,North Carolina,Ku Klux Klan,2006,Mount Holly,35.3115,-81.01
Heritage and Destiny,Virginia,White Nationalist,2006,Falls Church,38.8847,-77.1751
House of Yahweh,Tennessee,Christian Identity,2006,New Tazewell,36.4381,-83.6053
Hypatia Publishing,Washington,White Nationalist,2006,Vancouver,45.6352,-122.597
Imperial Klans of America Knights of the KKK,Ohio,Ku Klux Klan,2006,Amelia,39.0229,-84.2185
Imperial Klans of America Knights of the KKK,Texas,Ku Klux Klan,2006,Austin,30.3006,-97.7517
Imperial Klans of America Knights of the KKK,Pennsylvania,Ku Klux Klan,2006,Boothwyn,39.8357,-75.4453
Imperial Klans of America Knights of the KKK,Kentucky,Ku Klux Klan,2006,Brandenburg,37.9955,-86.1766
Imperial Klans of America Knights of the KKK,Indiana,Ku Klux Klan,2006,Center Point,39.4154,-87.0752
Imperial Klans of America Knights of the KKK,Ohio,Ku Klux Klan,2006,Cincinnati,39.1412,-84.5059
Imperial Klans of America Knights of the KKK,Kentucky,Ku Klux Klan,2006,Dawson Springs,37.174,-87.688
Imperial Klans of America Knights of the KKK,Texas,Ku Klux Klan,2006,Houston,29.7868,-95.3905
Imperial Klans of America Knights of the KKK,Texas,Ku Klux Klan,2006,Lefors,35.4396,-100.8039
Imperial Klans of America Knights of the KKK,Tennessee,Ku Klux Klan,2006,Mountain City,36.4695,-81.8049
Imperial Klans of America Knights of the KKK,Virginia,Ku Klux Klan,2006,Richmond,37.5295,-77.4756
Imperial Klans of America Knights of the KKK,District of Columbia,Ku Klux Klan,2006,Washington,38.9047,-77.0163
Independent Skins Southwest,Wyoming,Racist Skinhead,2006,Newcastle,43.851,-104.2124
Institute for Historical Review,California,Holocaust Denial,2006,Newport Beach,33.6151,-117.8669
International Keystone Knights of the KKK,Ohio,Ku Klux Klan,2006,Cleveland,41.4767,-81.6805
International Keystone Knights of the KKK,West Virginia,Ku Klux Klan,2006,Fairmont,39.4768,-80.1491
International Keystone Knights of the KKK,Pennsylvania,Ku Klux Klan,2006,Johnstown,40.3258,-78.9194
Invisible Empire of the International Knights,South Carolina,Ku Klux Klan,2006,Enoree,34.6593,-81.9609
ISD Records,Ohio,Hate Music,2006,Lancaster,39.7249,-82.6049
Jewish Defense League,California,General Hate,2006,Brookdale,37.1058,-122.1106
Jewish Defense League,New York,General Hate,2006,Brooklyn,40.6501,-73.9496
Jewish Defense League,Florida,General Hate,2006,Fort Lauderdale,26.1412,-80.1464
Jewish Defense League,California,General Hate,2006,Los Angeles,34.1139,-118.4068
Jewish Defense League,Nevada,General Hate,2006,Reno,39.5497,-119.8483
Jewish Defense League,Massachusetts,General Hate,2006,Revere,42.4191,-71.0035
Jewish Defense League,New York,General Hate,2006,Rochester,43.168,-77.6162
Jewish Defense League,California,General Hate,2006,Sacramento,38.5667,-121.4683
Jewish Defense League,Illinois,General Hate,2006,Skokie,42.0359,-87.74
Jewish Defense League,Texas,General Hate,2006,Waco,31.5597,-97.1883
Keystone State Skinheads,Pennsylvania,Racist Skinhead,2006,Altoona,40.5082,-78.4007
Keystone State Skinheads,Pennsylvania,Racist Skinhead,2006,Greensburg,40.3113,-79.5444
Keystone State Skinheads,Pennsylvania,Racist Skinhead,2006,Harrisburg,40.2752,-76.8843
Keystone State Skinheads,Pennsylvania,Racist Skinhead,2006,Philadelphia,40.0076,-75.134
Keystone State Skinheads,Pennsylvania,Racist Skinhead,2006,Pittsburgh,40.4396,-79.9763
Keystone State Skinheads,Pennsylvania,Racist Skinhead,2006,State College,40.7909,-77.8568
Kingdom Identity Ministries,Arkansas,Christian Identity,2006,Harrison,36.2437,-93.1197
Kinsman Redeemer Ministries,Washington,Christian Identity,2006,Tacoma,47.2431,-122.4531
Klan Store,Florida,Ku Klux Klan,2006,Ocala,29.1803,-82.1495
Knight Riders of the KKK,West Virginia,Ku Klux Klan,2006,Daniels,37.724,-81.1267
Knights of the Ku Klux Klan,Arkansas,Ku Klux Klan,2006,Concord,35.6625,-91.849
Knights of the Ku Klux Klan,Arkansas,Ku Klux Klan,2006,Harrison,36.2437,-93.1197
Knights of the Ku Klux Klan,Tennessee,Ku Klux Klan,2006,Newport,35.9617,-83.1977
Knights of the Ku Klux Klan,North Carolina,Ku Klux Klan,2006,Raleigh,35.8323,-78.6439
Knights of Yahweh,Tennessee,Ku Klux Klan,2006,Dandridge,36.0283,-83.4309
Knights of Yahweh,Tennessee,Ku Klux Klan,2006,Morristown,36.2043,-83.3001
KKK LLC,Indiana,Hate Music,2006,Albion,41.3966,-85.4186
KKK LLC,Indiana,Hate Music,2006,Auburn,41.3666,-85.056
KKK LLC,Arkansas,Hate Music,2006,Compton,36.0967,-93.3027
Lawrence Dennis Institute,Virginia,White Nationalist,2006,Fairfax,38.8531,-77.2997
League of the South,South Carolina,Neo-Confederate,2006,Abbeville,34.1787,-82.3774
League of the South,South Carolina,Neo-Confederate,2006,Aiken,33.5303,-81.727
League of the South,Florida,Neo-Confederate,2006,Alva,26.7188,-81.6269
League of the South,South Carolina,Neo-Confederate,2006,Anderson,34.5212,-82.6479
League of the South,Florida,Neo-Confederate,2006,Archer,29.5395,-82.5137
League of the South,Georgia,Neo-Confederate,2006,Athens,33.9508,-83.3689
League of the South,Georgia,Neo-Confederate,2006,Augusta,33.3645,-82.0708
League of the South,Texas,Neo-Confederate,2006,Austin,30.3006,-97.7517
League of the South,South Carolina,Neo-Confederate,2006,Bamberg,33.2995,-81.0323
League of the South,Tennessee,Neo-Confederate,2006,Bartlett,35.2337,-89.8195
League of the South,Florida,Neo-Confederate,2006,Belleview,29.0612,-82.0565
League of the South,Arkansas,Neo-Confederate,2006,Bismarck,34.3162,-93.1707
League of the South,Oklahoma,Neo-Confederate,2006,Bixby,35.9454,-95.8774
League of the South,Virginia,Neo-Confederate,2006,Bluefield,37.2351,-81.2751
League of the South,Florida,Neo-Confederate,2006,Bradenton,27.49,-82.5743
League of the South,Georgia,Neo-Confederate,2006,Brunswick,31.145,-81.474
League of the South,New York,Neo-Confederate,2006,Buffalo,42.9017,-78.8487
League of the South,North Carolina,Neo-Confederate,2006,Burlington,36.0762,-79.4687
League of the South,South Carolina,Neo-Confederate,2006,Cayce,33.9458,-81.0432
League of the South,Georgia,Neo-Confederate,2006,Cedartown,34.0224,-85.248
League of the South,North Carolina,Neo-Confederate,2006,Charlotte,35.2079,-80.8303
League of the South,South Carolina,Neo-Confederate,2006,Clemson,34.6838,-82.8124
League of the South,South Carolina,Neo-Confederate,2006,Columbia,34.037,-80.9042
League of the South,Virginia,Neo-Confederate,2006,Dublin,37.0987,-80.6831
League of the South,North Carolina,Neo-Confederate,2006,Durham,35.9797,-78.9037
League of the South,South Carolina,Neo-Confederate,2006,Easley,34.819,-82.5828
League of the South,Georgia,Neo-Confederate,2006,Forsyth,33.0347,-83.938
League of the South,Florida,Neo-Confederate,2006,Goldenrod,28.6114,-81.2916
League of the South,Florida,Neo-Confederate,2006,Gulf Breeze,30.3685,-87.1769
League of the South,Arkansas,Neo-Confederate,2006,Hamburg,33.2248,-91.7972
League of the South,North Carolina,Neo-Confederate,2006,Hamlet,34.889,-79.7098
League of the South,Virginia,Neo-Confederate,2006,Hanover,37.7668,-77.3706
League of the South,Missouri,Neo-Confederate,2006,Holt,39.4553,-94.3371
League of the South,Arkansas,Neo-Confederate,2006,Hot Springs,34.4902,-93.0498
League of the South,Texas,Neo-Confederate,2006,Iredell,31.9865,-97.872
League of the South,Florida,Neo-Confederate,2006,Jacksonville,30.3322,-81.6749
League of the South,Florida,Neo-Confederate,2006,Key West,24.5636,-81.7769
League of the South,Alabama,Neo-Confederate,2006,Killen,34.8607,-87.5269
League of the South,Tennessee,Neo-Confederate,2006,Lawrenceburg,35.2497,-87.3325
League of the South,Kentucky,Neo-Confederate,2006,Lebanon,37.5685,-85.258
League of the South,Missouri,Neo-Confederate,2006,Lebanon,37.6718,-92.6603
League of the South,Florida,Neo-Confederate,2006,Longwood,28.7018,-81.3488
League of the South,Colorado,Neo-Confederate,2006,Louisville,39.9709,-105.1441
League of the South,Georgia,Neo-Confederate,2006,Macon,32.8407,-83.6324
League of the South,Georgia,Neo-Confederate,2006,McDonough,33.4398,-84.1508
League of the South,Mississippi,Neo-Confederate,2006,Mendenhall,31.9609,-89.8694
League of the South,Florida,Neo-Confederate,2006,Milton,30.6286,-87.0521
League of the South,Alabama,Neo-Confederate,2006,Mobile,30.6783,-88.1162
League of the South,Louisiana,Neo-Confederate,2006,Monroe,32.5184,-92.0774
League of the South,Tennessee,Neo-Confederate,2006,Murfreesboro,35.8493,-86.4098
League of the South,Tennessee,Neo-Confederate,2006,Nashville,36.1714,-86.7844
League of the South,Missouri,Neo-Confederate,2006,Nevada,37.8445,-94.3492
League of the South,South Carolina,Neo-Confederate,2006,Newberry,34.2822,-81.6012
League of the South,Missouri,Neo-Confederate,2006,Owensville,38.349,-91.4974
League of the South,Florida,Neo-Confederate,2006,Panama City,30.1997,-85.6003
League of the South,Georgia,Neo-Confederate,2006,Rome,34.2662,-85.1862
League of the South,North Carolina,Neo-Confederate,2006,Salisbury,35.6657,-80.491
League of the South,South Carolina,Neo-Confederate,2006,Salley,33.5678,-81.3037
League of the South,Texas,Neo-Confederate,2006,San Angelo,31.4426,-100.4501
League of the South,Georgia,Neo-Confederate,2006,Savannah,32.0282,-81.1786
League of the South,California,Neo-Confederate,2006,Scotts Valley,37.0555,-122.0118
League of the South,Alabama,Neo-Confederate,2006,Selma,32.4166,-87.0336
League of the South,South Carolina,Neo-Confederate,2006,Spartanburg,34.9437,-81.9257
League of the South,South Carolina,Neo-Confederate,2006,Sumter,33.9392,-80.393
League of the South,South Carolina,Neo-Confederate,2006,Surfside Beach,33.6092,-78.9772
League of the South,Florida,Neo-Confederate,2006,Tampa,27.9937,-82.4454
League of the South,Florida,Neo-Confederate,2006,Wellborn,30.2311,-82.8196
League of the South,Florida,Neo-Confederate,2006,Wellington,26.6464,-80.2707
League of the South,Alabama,Neo-Confederate,2006,Weogufka,33.0267,-86.3169
League of the South,Missouri,Neo-Confederate,2006,West Plains,36.7378,-91.868
League of the South,Tennessee,Neo-Confederate,2006,Westpoint,35.1331,-87.5336
League of the South,Alabama,Neo-Confederate,2006,Wetumpka,32.5407,-86.2057
League of the South,Virginia,Neo-Confederate,2006,Williamsburg,37.2693,-76.7076
League of the South,North Carolina,Neo-Confederate,2006,Wilmington,34.21,-77.886
League of the South,North Carolina,Neo-Confederate,2006,Winston-Salem,36.1029,-80.261
Lebensborn Assembly Church,Alabama,Neo-Nazi,2006,Birmingham,33.5276,-86.7988
IHS Press,Virginia,Radical Traditional Catholicism,2006,Norfolk,36.8945,-76.259
LoneStar State Skinheads,Texas,Racist Skinhead,2006,Houston,29.7868,-95.3905
Louisiana White Knights of the KKK,Louisiana,Ku Klux Klan,2006,Walker,30.4848,-90.8654
Maryland State Skinheads,Maryland,Racist Skinhead,2006,Baltimore,39.3051,-76.6144
Micetrap Distribution,New Jersey,Hate Music,2006,Maple Shade,39.9526,-74.9924
Midland Hammerskins,Kansas,Racist Skinhead,2006,Wichita,37.6897,-97.3442
Mission to Israel,Nebraska,Christian Identity,2006,Scottsbluff,41.8677,-103.6619
Mississippi White Knights of the KKK,Mississippi,Ku Klux Klan,2006,Bruce,33.9909,-89.3454
Mississippi White Knights of the KKK,Mississippi,Ku Klux Klan,2006,Hattiesburg,31.3072,-89.3168
Mississippi White Knights of the KKK,Mississippi,Ku Klux Klan,2006,Jackson,32.3163,-90.2124
Mississippi White Knights of the KKK,Mississippi,Ku Klux Klan,2006,Laurel,31.6956,-89.1448
Mississippi White Knights of the KKK,Mississippi,Ku Klux Klan,2006,Petal,31.3477,-89.2359
Mississippi White Knights of the KKK,Mississippi,Ku Klux Klan,2006,Philadelphia,32.7761,-89.1221
Mississippi White Knights of the KKK,Mississippi,Ku Klux Klan,2006,Star,32.094,-90.0462
Mississippi White Knights of the KKK,Mississippi,Ku Klux Klan,2006,Tremont,34.2327,-88.2509
Mississippi White Knights of the KKK,Arkansas,Ku Klux Klan,2006,Winslow,35.8008,-94.1303
MSR Productions,Colorado,Hate Music,2006,Wheat Ridge,39.7728,-105.1031
Mystic Knights of the KKK,Ohio,Ku Klux Klan,2006,Dayton,39.7797,-84.1998
Nation of Islam,Louisiana,Black Nationalist,2006,Alexandria,31.2923,-92.4702
Nation of Islam,Georgia,Black Nationalist,2006,Atlanta,33.7626,-84.4228
Nation of Islam,Texas,Black Nationalist,2006,Austin,30.3006,-97.7517
Nation of Islam,Maryland,Black Nationalist,2006,Baltimore,39.3051,-76.6144
Nation of Islam,Louisiana,Black Nationalist,2006,Baton Rouge,30.4423,-91.1314
Nation of Islam,Alabama,Black Nationalist,2006,Birmingham,33.5276,-86.7988
Nation of Islam,Connecticut,Black Nationalist,2006,Bridgeport,41.1909,-73.1958
Nation of Islam,New York,Black Nationalist,2006,Buffalo,42.9017,-78.8487
Nation of Islam,South Carolina,Black Nationalist,2006,Charleston,32.8137,-79.9643
Nation of Islam,North Carolina,Black Nationalist,2006,Charlotte,35.2079,-80.8303
Nation of Islam,Illinois,Black Nationalist,2006,Chicago,41.8373,-87.6861
Nation of Islam,Ohio,Black Nationalist,2006,Cincinnati,39.1412,-84.5059
Nation of Islam,Ohio,Black Nationalist,2006,Cleveland,41.4767,-81.6805
Nation of Islam,South Carolina,Black Nationalist,2006,Columbia,34.037,-80.9042
Nation of Islam,Ohio,Black Nationalist,2006,Columbus,39.986,-82.9852
Nation of Islam,Texas,Black Nationalist,2006,Dallas,32.7937,-96.7662
Nation of Islam,Michigan,Black Nationalist,2006,Detroit,42.3834,-83.1024
Nation of Islam,North Carolina,Black Nationalist,2006,Durham,35.9797,-78.9037
Nation of Islam,Texas,Black Nationalist,2006,Fort Worth,32.7814,-97.3473
Nation of Islam,North Carolina,Black Nationalist,2006,Greensboro,36.0956,-79.8269
Nation of Islam,North Carolina,Black Nationalist,2006,Greenville,35.5957,-77.3764
Nation of Islam,Mississippi,Black Nationalist,2006,Greenville,33.385,-91.0514
Nation of Islam,Connecticut,Black Nationalist,2006,Hartford,41.7661,-72.6834
Nation of Islam,Texas,Black Nationalist,2006,Houston,29.7868,-95.3905
Nation of Islam,Indiana,Black Nationalist,2006,Indianapolis,39.7771,-86.1458
Nation of Islam,Mississippi,Black Nationalist,2006,Jackson,32.3163,-90.2124
Nation of Islam,Missouri,Black Nationalist,2006,Kansas City,39.1239,-94.5541
Nation of Islam,Nevada,Black Nationalist,2006,Las Vegas,36.2291,-115.2607
Nation of Islam,Arkansas,Black Nationalist,2006,Little Rock,34.7255,-92.3581
Nation of Islam,California,Black Nationalist,2006,Los Angeles,34.1139,-118.4068
Nation of Islam,Kentucky,Black Nationalist,2006,Louisville,38.1662,-85.6488
Nation of Islam,Georgia,Black Nationalist,2006,Macon,32.8407,-83.6324
Nation of Islam,Tennessee,Black Nationalist,2006,Memphis,35.1047,-89.9773
Nation of Islam,Florida,Black Nationalist,2006,Miami,25.784,-80.2102
Nation of Islam,Wisconsin,Black Nationalist,2006,Milwaukee,43.064,-87.9669
Nation of Islam,Alabama,Black Nationalist,2006,Mobile,30.6783,-88.1162
Nation of Islam,Louisiana,Black Nationalist,2006,Monroe,32.5184,-92.0774
Nation of Islam,Tennessee,Black Nationalist,2006,Nashville,36.1714,-86.7844
Nation of Islam,New Jersey,Black Nationalist,2006,New Brunswick,40.487,-74.445
Nation of Islam,Louisiana,Black Nationalist,2006,New Orleans,30.0687,-89.9288
Nation of Islam,New Jersey,Black Nationalist,2006,Newark,40.7245,-74.1725
Nation of Islam,California,Black Nationalist,2006,Oakland,37.7903,-122.2165
Nation of Islam,Pennsylvania,Black Nationalist,2006,Philadelphia,40.0076,-75.134
Nation of Islam,Arizona,Black Nationalist,2006,Phoenix,33.5722,-112.0891
Nation of Islam,Pennsylvania,Black Nationalist,2006,Pittsburgh,40.4396,-79.9763
Nation of Islam,New Jersey,Black Nationalist,2006,Plainfield,40.6154,-74.4157
Nation of Islam,California,Black Nationalist,2006,Rialto,34.1128,-117.3885
Nation of Islam,Virginia,Black Nationalist,2006,Richmond,37.5295,-77.4756
Nation of Islam,California,Black Nationalist,2006,Richmond,37.9477,-122.339
Nation of Islam,California,Black Nationalist,2006,Sacramento,38.5667,-121.4683
Nation of Islam,Texas,Black Nationalist,2006,San Antonio,29.4722,-98.5247
Nation of Islam,California,Black Nationalist,2006,San Diego,32.8312,-117.1226
Nation of Islam,California,Black Nationalist,2006,San Francisco,37.7562,-122.443
Nation of Islam,Georgia,Black Nationalist,2006,Savannah,32.0282,-81.1786
Nation of Islam,Louisiana,Black Nationalist,2006,Shreveport,32.4659,-93.7959
Nation of Islam,Massachusetts,Black Nationalist,2006,Springfield,42.1155,-72.5395
Nation of Islam,Texas,Black Nationalist,2006,Texarkana,33.4487,-94.0815
Nation of Islam,New Jersey,Black Nationalist,2006,Trenton,40.2237,-74.764
Nation of Islam,Oklahoma,Black Nationalist,2006,Tulsa,36.1284,-95.9042
Nation of Islam,Texas,Black Nationalist,2006,Waco,31.5597,-97.1883
Nation of Islam,District of Columbia,Black Nationalist,2006,Washington,38.9047,-77.0163
Nation of Islam,Pennsylvania,Black Nationalist,2006,Wilkinsburg,40.4442,-79.8733
Nation of Islam,Delaware,Black Nationalist,2006,Wilmington,39.7415,-75.5413
Nation of Islam,North Carolina,Black Nationalist,2006,Winston-Salem,36.1029,-80.261
National Alliance,Maryland,Neo-Nazi,2006,Baltimore,39.3051,-76.6144
National Alliance,North Carolina,Neo-Nazi,2006,Benson,35.3859,-78.5437
National Alliance,Illinois,Neo-Nazi,2006,Chicago,41.8373,-87.6861
National Alliance,Ohio,Neo-Nazi,2006,Cincinnati,39.1412,-84.5059
National Alliance,Ohio,Neo-Nazi,2006,Cleveland,41.4767,-81.6805
National Alliance,Wyoming,Neo-Nazi,2006,Douglas,42.7541,-105.3969
National Alliance,West Virginia,Neo-Nazi,2006,Hillsboro,38.1353,-80.2136
National Alliance,Texas,Neo-Nazi,2006,Houston,29.7868,-95.3905
National Alliance,North Carolina,Neo-Nazi,2006,Raleigh,35.8323,-78.6439
National Alliance,California,Neo-Nazi,2006,Sacramento,38.5667,-121.4683
National Aryan Knights of the KKK,Florida,Ku Klux Klan,2006,Englewood,26.9604,-82.3535
National Aryan Knights of the KKK,Louisiana,Ku Klux Klan,2006,Winnsboro,32.165,-91.721
National Association for the Advancement of White People,Florida,White Nationalist,2006,Jacksonville,30.3322,-81.6749
National Knights of the KKK,Texas,Ku Klux Klan,2006,Blue Ridge,33.298,-96.3999
National Knights of the KKK,California,Ku Klux Klan,2006,Calpella,39.2322,-123.197
National Knights of the KKK,Illinois,Ku Klux Klan,2006,Chicago,41.8373,-87.6861
National Knights of the KKK,Michigan,Ku Klux Klan,2006,Dowling,42.5227,-85.2531
National Knights of the KKK,Missouri,Ku Klux Klan,2006,Hannibal,39.7097,-91.3936
National Knights of the KKK,Oregon,Ku Klux Klan,2006,Junction City,44.2068,-123.2097
National Knights of the KKK,Nevada,Ku Klux Klan,2006,Las Vegas,36.2291,-115.2607
National Knights of the KKK,Kentucky,Ku Klux Klan,2006,Lexington,38.0423,-84.4587
National Knights of the KKK,Ohio,Ku Klux Klan,2006,Logan,39.5386,-82.4063
National Knights of the KKK,Wisconsin,Ku Klux Klan,2006,Mercer,46.1635,-90.0528
National Knights of the KKK,Tennessee,Ku Klux Klan,2006,Nashville,36.1714,-86.7844
National Knights of the KKK,Colorado,Ku Klux Klan,2006,Olathe,38.6084,-107.983
National Knights of the KKK,South Carolina,Ku Klux Klan,2006,Pauline,34.8332,-81.8723
National Knights of the KKK,New York,Ku Klux Klan,2006,Port Jervis,41.3782,-74.6909
National Knights of the KKK,Alabama,Ku Klux Klan,2006,Red Bay,34.4358,-88.1362
National Knights of the KKK,Indiana,Ku Klux Klan,2006,South Bend,41.6771,-86.2692
National Knights of the KKK,Washington,Ku Klux Klan,2006,Spokane,47.6671,-117.433
National Knights of the KKK,New Hampshire,Ku Klux Klan,2006,Winchester,42.7769,-72.385
National Knights of the KKK/Ladies Auxillary,South Carolina,Ku Klux Klan,2006,Pauline,34.8332,-81.8723
National Policy Institute,Virginia,White Nationalist,2006,McLean,38.9436,-77.1943
National Socialist Freedom Movement,Oklahoma,Neo-Nazi,2006,Tulsa,36.1284,-95.9042
National Socialist German Workers Party,Nebraska,Neo-Nazi,2006,Lincoln,40.8098,-96.6802
National Socialist Movement,Alabama,Neo-Nazi,2006,Alexander City,32.9242,-85.9361
National Socialist Movement,Idaho,Neo-Nazi,2006,Athol,47.9446,-116.7079
National Socialist Movement,Georgia,Neo-Nazi,2006,Augusta,33.3645,-82.0708
National Socialist Movement,Virginia,Neo-Nazi,2006,Berryville,39.1505,-77.9824
National Socialist Movement,Pennsylvania,Neo-Nazi,2006,Bethlehem,40.6266,-75.3679
National Socialist Movement,Montana,Neo-Nazi,2006,Billings,45.7889,-108.5503
National Socialist Movement,Massachusetts,Neo-Nazi,2006,Boston,42.3188,-71.0846
National Socialist Movement,New York,Neo-Nazi,2006,Brooklyn,40.6501,-73.9496
National Socialist Movement,Montana,Neo-Nazi,2006,Butte,45.902,-112.6571
National Socialist Movement,Michigan,Neo-Nazi,2006,Cadillac,44.2495,-85.4139
National Socialist Movement,North Carolina,Neo-Nazi,2006,Charlotte,35.2079,-80.8303
National Socialist Movement,Illinois,Neo-Nazi,2006,Chicago,41.8373,-87.6861
National Socialist Movement,Ohio,Neo-Nazi,2006,Cincinnati,39.1412,-84.5059
National Socialist Movement,Colorado,Neo-Nazi,2006,Colorado Springs,38.8674,-104.7606
National Socialist Movement,Missouri,Neo-Nazi,2006,Columbia,38.9478,-92.3258
National Socialist Movement,Ohio,Neo-Nazi,2006,Covington,40.1174,-84.3508
National Socialist Movement,Colorado,Neo-Nazi,2006,Denver,39.7621,-104.8759
National Socialist Movement,Michigan,Neo-Nazi,2006,Detroit,42.3834,-83.1024
National Socialist Movement,North Carolina,Neo-Nazi,2006,Elizabeth City,36.2943,-76.236
National Socialist Movement,South Carolina,Neo-Nazi,2006,Enoree,34.6593,-81.9609
National Socialist Movement,Nevada,Neo-Nazi,2006,Fallon,39.4739,-118.778
National Socialist Movement,California,Neo-Nazi,2006,Fresno,36.7834,-119.7941
National Socialist Movement,California,Neo-Nazi,2006,Glendale,34.1818,-118.2468
National Socialist Movement,Michigan,Neo-Nazi,2006,Grand Rapids,42.9615,-85.6557
National Socialist Movement,Wisconsin,Neo-Nazi,2006,Green Bay,44.515,-87.9896
National Socialist Movement,North Carolina,Neo-Nazi,2006,Greensboro,36.0956,-79.8269
National Socialist Movement,Virginia,Neo-Nazi,2006,Harrisonburg,38.4362,-78.8735
National Socialist Movement,Texas,Neo-Nazi,2006,Houston,29.7868,-95.3905
National Socialist Movement,Kansas,Neo-Nazi,2006,Hutchinson,38.0671,-97.9081
National Socialist Movement,Indiana,Neo-Nazi,2006,Indianapolis,39.7771,-86.1458
National Socialist Movement,Missouri,Neo-Nazi,2006,Jefferson City,38.5677,-92.1757
National Socialist Movement,Kansas,Neo-Nazi,2006,Kansas City,39.1234,-94.7443
National Socialist Movement,Ohio,Neo-Nazi,2006,Lakewood,41.4824,-81.8008
National Socialist Movement,Nevada,Neo-Nazi,2006,Las Vegas,36.2291,-115.2607
National Socialist Movement,Ohio,Neo-Nazi,2006,Lewisburg,39.8508,-84.5434
National Socialist Movement,Montana,Neo-Nazi,2006,Libby,48.3875,-115.5559
National Socialist Movement,Texas,Neo-Nazi,2006,Lubbock,33.5643,-101.8871
National Socialist Movement,Wisconsin,Neo-Nazi,2006,Madison,43.0808,-89.3922
National Socialist Movement,Wisconsin,Neo-Nazi,2006,Milwaukee,43.064,-87.9669
National Socialist Movement,Washington,Neo-Nazi,2006,Mukilteo,47.9094,-122.3035
National Socialist Movement,Tennessee,Neo-Nazi,2006,Nashville,36.1714,-86.7844
National Socialist Movement,Virginia,Neo-Nazi,2006,Norfolk,36.8945,-76.259
National Socialist Movement,Florida,Neo-Nazi,2006,Ocala,29.1803,-82.1495
National Socialist Movement,Oklahoma,Neo-Nazi,2006,Oklahoma City,35.4676,-97.5136
National Socialist Movement,Florida,Neo-Nazi,2006,Orlando,28.4788,-81.342
National Socialist Movement,Michigan,Neo-Nazi,2006,Port Huron,42.9822,-82.4387
National Socialist Movement,Oregon,Neo-Nazi,2006,Portland,45.5372,-122.65
National Socialist Movement,Illinois,Neo-Nazi,2006,Quincy,39.9335,-91.3797
National Socialist Movement,Texas,Neo-Nazi,2006,Richardson,32.9717,-96.7092
National Socialist Movement,Washington,Neo-Nazi,2006,Richland,46.2826,-119.2938
National Socialist Movement,West Virginia,Neo-Nazi,2006,Romney,39.3454,-78.7564
National Socialist Movement,California,Neo-Nazi,2006,Sacramento,38.5667,-121.4683
National Socialist Movement,Kansas,Neo-Nazi,2006,Scandia,39.7969,-97.784
National Socialist Movement,Illinois,Neo-Nazi,2006,Schiller Park,41.9586,-87.8693
National Socialist Movement,Washington,Neo-Nazi,2006,Seattle,47.6211,-122.3244
National Socialist Movement,Oregon,Neo-Nazi,2006,Sisters,44.292,-121.5534
National Socialist Movement,South Carolina,Neo-Nazi,2006,Spartanburg,34.9437,-81.9257
National Socialist Movement,Ohio,Neo-Nazi,2006,Spencerville,40.7079,-84.3526
National Socialist Movement,Oklahoma,Neo-Nazi,2006,Tulsa,36.1284,-95.9042
National Socialist Movement,New Jersey,Neo-Nazi,2006,Vineland,39.4653,-74.9981
National Socialist Movement,Indiana,Neo-Nazi,2006,Wakarusa,41.5336,-86.0138
National Socialist Movement,Louisiana,Neo-Nazi,2006,Walker,30.4848,-90.8654
National Socialist Movement,North Carolina,Neo-Nazi,2006,Winston-Salem,36.1029,-80.261
National Socialist Skinhead Front,California,Racist Skinhead,2006,San Luis Obispo,35.2671,-120.6689
National States Rights Party,Mississippi,White Nationalist,2006,Philadelphia,32.7761,-89.1221
National Vanguard,Massachusetts,Neo-Nazi,2006,Boston,42.3188,-71.0846
National Vanguard,Virginia,Neo-Nazi,2006,Charlottesville,38.0375,-78.4855
National Vanguard,New Jersey,Neo-Nazi,2006,Elmwood Park,40.905,-74.1201
National Vanguard,New Jersey,Neo-Nazi,2006,Hewitt,41.1418,-74.3107
National Vanguard,Nevada,Neo-Nazi,2006,Las Vegas,36.2291,-115.2607
National Vanguard,Arizona,Neo-Nazi,2006,Phoenix,33.5722,-112.0891
National Vanguard,North Carolina,Neo-Nazi,2006,Raleigh,35.8323,-78.6439
National Vanguard,California,Neo-Nazi,2006,Sacramento,38.5667,-121.4683
National Vanguard,Washington,Neo-Nazi,2006,Seattle,47.6211,-122.3244
National Vanguard,Arizona,Neo-Nazi,2006,Tempe,33.3881,-111.9318
National Vanguard,New York,Neo-Nazi,2006,West Hurley,42.0083,-74.1121
Nationalist Coalition,Colorado,Neo-Nazi,2006,Denver,39.7621,-104.8759
Nationalist Free Press,Tennessee,White Nationalist,2006,Dandridge,36.0283,-83.4309
Nationalist Movement,Mississippi,White Nationalist,2006,Learned,32.1973,-90.5486
Natural State Skinheads,Arkansas,Racist Skinhead,2006,Russellville,35.2761,-93.1383
New Beginnings,North Carolina,Christian Identity,2006,Waynesville,35.4853,-82.9996
New Black Panther Party,Georgia,Black Nationalist,2006,Atlanta,33.7626,-84.4228
New Black Panther Party,Georgia,Black Nationalist,2006,Augusta,33.3645,-82.0708
New Black Panther Party,Louisiana,Black Nationalist,2006,Baton Rouge,30.4423,-91.1314
New Black Panther Party,Illinois,Black Nationalist,2006,Chicago,41.8373,-87.6861
New Black Panther Party,Texas,Black Nationalist,2006,Dallas,32.7937,-96.7662
New Black Panther Party,Colorado,Black Nationalist,2006,Denver,39.7621,-104.8759
New Black Panther Party,Michigan,Black Nationalist,2006,Detroit,42.3834,-83.1024
New Black Panther Party,Texas,Black Nationalist,2006,Houston,29.7868,-95.3905
New Black Panther Party,California,Black Nationalist,2006,Los Angeles,34.1139,-118.4068
New Black Panther Party,Louisiana,Black Nationalist,2006,New Orleans,30.0687,-89.9288
New Black Panther Party,New Jersey,Black Nationalist,2006,Newark,40.7245,-74.1725
New Black Panther Party,Pennsylvania,Black Nationalist,2006,Philadelphia,40.0076,-75.134
New Black Panther Party,New Jersey,Black Nationalist,2006,Trenton,40.2237,-74.764
New Black Panther Party,District of Columbia,Black Nationalist,2006,Washington,38.9047,-77.0163
New Order,Wisconsin,Neo-Nazi,2006,Milwaukee,43.064,-87.9669
Noontide Press,California,Holocaust Denial,2006,Newport Beach,33.6151,-117.8669
Nor Cal San Jose Skins,California,Racist Skinhead,2006,San Jose,37.3018,-121.8485
Nordwave,Florida,Neo-Nazi,2006,Lake Worth,26.6194,-80.059
North East White Pride,Massachusetts,White Nationalist,2006,Chelsea,42.3959,-71.0325
North East White Pride,Connecticut,White Nationalist,2006,Stratford,41.207,-73.1305
Northern Hammerskins,Michigan,Racist Skinhead,2006,Detroit,42.3834,-83.1024
Northern Voice Bookstore,Pennsylvania,White Nationalist,2006,Wildwood,40.5942,-79.9701
NS Publications,Michigan,Neo-Nazi,2006,Wyandotte,42.2113,-83.1558
Occidental Quarterly/Charles Martel Society,Maryland,White Nationalist,2006,Mount Airy,39.3742,-77.1535
Odium Books,California,General Hate,2006,Montecito,34.4382,-119.6286
Ohio State Skinheads,Ohio,Racist Skinhead,2006,Lancaster,39.7249,-82.6049
Old Guard Records,Texas,Hate Music,2006,Plano,33.0502,-96.7487
OMNI Christian Book Club,California,Radical Traditional Catholicism,2006,Palmdale,34.5944,-118.1057
Order of St. Andrew,Mississippi,White Nationalist,2006,Southaven,34.9514,-89.9787
Our Race is Our Nation,Alabama,White Nationalist,2006,Hoover,33.3763,-86.8058
Palm Beach Christian Group,Florida,General Hate,2006,Lantana,26.5834,-80.0565
Pioneer Fund,New York,White Nationalist,2006,New York,40.6943,-73.9249
Power of Prophecy,Texas,General Hate,2006,Austin,30.3006,-97.7517
Proud White Brotherhood,Georgia,Christian Identity,2006,Experiment,33.2789,-84.276
Prussians Motorcycle Club,Minnesota,Neo-Nazi,2006,Ogilvie,45.829,-93.422
Racial Nationalist Party of America,New York,White Nationalist,2006,Lockport,43.1698,-78.6956
Reformed Church of Israel,Missouri,Christian Identity,2006,Schell City,38.0192,-94.1167
Remnant Outreach Ministries,Arizona,Christian Identity,2006,Cottonwood,34.7194,-112.0015
Reno Skinheads,Nevada,Racist Skinhead,2006,Reno,39.5497,-119.8483
Rescue Without Borders,Colorado,Anti-Immigrant,2006,Boulder,40.0249,-105.2523
Resistance Records,West Virginia,Hate Music,2006,Hillsboro,38.1353,-80.2136
Retaliator Skinhead Nation,Wisconsin,Racist Skinhead,2006,Gilmanton,44.4738,-91.6785
Right Now!,Georgia,White Nationalist,2006,Augusta,33.3645,-82.0708
Sacramaniacs,California,Racist Skinhead,2006,Sacramento,38.5667,-121.4683
Sacto Skinheads,California,Racist Skinhead,2006,Sacramento,38.5667,-121.4683
Save Our State,Illinois,Anti-Immigrant,2006,Chicago,41.8373,-87.6861
Save Our State,New York,Anti-Immigrant,2006,New York,40.6943,-73.9249
Save Our State,California,Anti-Immigrant,2006,Sacramento,38.5667,-121.4683
Scriptures for America Worldwide Ministries,Colorado,Christian Identity,2006,Laporte,40.6385,-105.1444
Seattle Creators Assembly,Washington,Neo-Nazi,2006,Puyallup,47.1794,-122.2902
Seattle Creators Assembly,Washington,Neo-Nazi,2006,Seattle,47.6211,-122.3244
Sigrdrifa,Washington,White Nationalist,2006,Vancouver,45.6352,-122.597
Silver State Skins,Nevada,Racist Skinhead,2006,Las Vegas,36.2291,-115.2607
The Social Contract Press,Michigan,White Nationalist,2006,Petoskey,45.3649,-84.9887
Sons of Liberty Committee,Florida,White Nationalist,2006,Shady Hills,28.4043,-82.5468
Southern Nevada Skinheads,Nevada,Racist Skinhead,2006,Las Vegas,36.2291,-115.2607
Southern Realm Invisible Knights of the KKK Inc.,North Carolina,Ku Klux Klan,2006,Lincolnton,35.4747,-81.2385
SS Enterprises,California,Neo-Nazi,2006,Fresno,36.7834,-119.7941
SS Regalia,Maryland,Neo-Nazi,2006,Edgewater,38.9373,-76.5572
St. Joseph Forum,Indiana,Radical Traditional Catholicism,2006,South Bend,41.6771,-86.2692
St. Michael's Parish/Mount St. Michael,Washington,Radical Traditional Catholicism,2006,Spokane,47.6671,-117.433
Stone Kingdom Ministries,North Carolina,Christian Identity,2006,Asheville,35.5706,-82.5537
Stormfront,Florida,White Nationalist,2006,West Palm Beach,26.7467,-80.1314
Texas Knights of the Invisible Empire Inc.,Texas,Ku Klux Klan,2006,San Antonio,29.4722,-98.5247
The Christian Guard,Florida,Christian Identity,2006,Kathleen,28.1224,-82.0387
The Christian Guard,Wisconsin,Christian Identity,2006,Kenosha,42.5863,-87.8759
The Hated,Florida,Racist Skinhead,2006,Gainesville,29.6808,-82.3455
The Kinist Institute,Florida,White Nationalist,2006,Orlando,28.4788,-81.342
The Redneck Shop,South Carolina,General Hate,2006,Laurens,34.5019,-82.021
The Remnant,Minnesota,Radical Traditional Catholicism,2006,Forest Lake,45.2536,-92.9583
Thule Publications,Oregon,Neo-Nazi,2006,Portland,45.5372,-122.65
Tradition In Action,California,Radical Traditional Catholicism,2006,Los Angeles,34.1139,-118.4068
Traditional Values Coalition,California,Anti-LGBT,2006,Anaheim,33.839,-117.8572
Traditional Values Coalition,District of Columbia,Anti-LGBT,2006,Washington,38.9047,-77.0163
Unholy Records,West Virginia,Hate Music,2006,Marlinton,38.2246,-80.0906
United Northern and Southern Knights of the KKK,Ohio,Ku Klux Klan,2006,Bethel,38.9627,-84.0847
United Northern and Southern Knights of the KKK,Indiana,Ku Klux Klan,2006,Bloomington,39.1637,-86.5256
United Northern and Southern Knights of the KKK,Tennessee,Ku Klux Klan,2006,Brush Creek,36.1173,-86.0278
United Northern and Southern Knights of the KKK,Michigan,Ku Klux Klan,2006,Fraser,42.5388,-82.9496
United Northern and Southern Knights of the KKK,Virginia,Ku Klux Klan,2006,Gordonsville,38.1361,-78.1878
United Northern and Southern Knights of the KKK,Kentucky,Ku Klux Klan,2006,Maysville,38.6454,-83.7911
United Northern and Southern Knights of the KKK,New Jersey,Ku Klux Klan,2006,Merchantville,39.9502,-75.0504
United Northern and Southern Knights of the KKK,Michigan,Ku Klux Klan,2006,Milan,42.0816,-83.6854
United Northern and Southern Knights of the KKK,Wisconsin,Ku Klux Klan,2006,Monroe,42.6026,-89.6374
United Northern and Southern Knights of the KKK,Kentucky,Ku Klux Klan,2006,Newport,39.0855,-84.4869
United Northern and Southern Knights of the KKK,Indiana,Ku Klux Klan,2006,Portage,41.5866,-87.1792
United Northern and Southern Knights of the KKK,Tennessee,Ku Klux Klan,2006,Waynesboro,35.3236,-87.7593
United Nuwaubian Nation of Moors/All Eyes on Egipt,Georgia,Black Nationalist,2006,Athens,33.9508,-83.3689
United Nuwaubian Nation of Moors/All Eyes on Egipt,Georgia,Black Nationalist,2006,Atlanta,33.7626,-84.4228
United Nuwaubian Nation of Moors/All Eyes on Egipt,Georgia,Black Nationalist,2006,Augusta,33.3645,-82.0708
United Nuwaubian Nation of Moors/All Eyes on Egipt,New York,Black Nationalist,2006,Brooklyn,40.6501,-73.9496
United Nuwaubian Nation of Moors/All Eyes on Egipt,Georgia,Black Nationalist,2006,Macon,32.8407,-83.6324
United Nuwaubian Nation of Moors/All Eyes on Egipt,Georgia,Black Nationalist,2006,Savannah,32.0282,-81.1786
United Patriots and Associates,Louisiana,White Nationalist,2006,Shreveport,32.4659,-93.7959
United Skinheads of Atlanta,Georgia,Racist Skinhead,2006,Atlanta,33.7626,-84.4228
United Society of Aryan Skinheads,California,Racist Skinhead,2006,San Diego,32.8312,-117.1226
VDARE Foundation,Virginia,White Nationalist,2006,Warrenton,38.7176,-77.7975
Vinland Winds Records,New York,Hate Music,2006,New York,40.6943,-73.9249
Virginia Publishing Company,Virginia,Christian Identity,2006,Lynchburg,37.4003,-79.1908
Volksfront,Massachusetts,Racist Skinhead,2006,Boston,42.3188,-71.0846
Volksfront,California,Racist Skinhead,2006,Concord,37.9722,-122.0016
Volksfront,Oregon,Racist Skinhead,2006,Eugene,44.0563,-123.1173
Volksfront,California,Racist Skinhead,2006,Los Angeles,34.1139,-118.4068
Volksfront,New York,Racist Skinhead,2006,New York,40.6943,-73.9249
Volksfront,Arizona,Racist Skinhead,2006,Phoenix,33.5722,-112.0891
Volksfront,Oregon,Racist Skinhead,2006,Portland,45.5372,-122.65
Volksfront,California,Racist Skinhead,2006,Sunset Beach,33.7164,-118.069
Volksfront,Washington,Racist Skinhead,2006,Vancouver,45.6352,-122.597
Voz de Aztlan,California,General Hate,2006,Whittier,33.9678,-118.0188
Warriors of the White World,Kentucky,Ku Klux Klan,2006,Leitchfield,37.4863,-86.2857
Washington Summit Publishers,Georgia,White Nationalist,2006,Augusta,33.3645,-82.0708
Watchman Outreach Ministries,Missouri,Christian Identity,2006,Schell City,38.0192,-94.1167
Weisman Publications,Minnesota,Christian Identity,2006,Burnsville,44.7648,-93.2795
Westboro Baptist Church,Kansas,Anti-LGBT,2006,Topeka,39.0346,-95.6956
White Aryan Resistance,California,Neo-Nazi,2006,Temecula,33.4928,-117.1314
White Camelia Knights of the KKK,Texas,Ku Klux Klan,2006,Cleveland,30.3368,-95.0924
White Camelia Knights of the KKK,Texas,Ku Klux Klan,2006,Houston,29.7868,-95.3905
White Devil Industries,California,Hate Music,2006,Ventura,34.2783,-119.2932
White Legion Knights of the KKK,California,Ku Klux Klan,2006,Santa Ana,33.7366,-117.8819
White Mountain Knights of the KKK,Kentucky,Ku Klux Klan,2006,Buffalo,37.5081,-85.6992
White Nation Network,Florida,White Nationalist,2006,Lakeland,28.0557,-81.9543
White People's Party,Nevada,White Nationalist,2006,Las Vegas,36.2291,-115.2607
White Revolution,Connecticut,Neo-Nazi,2006,Bridgeport,41.1909,-73.1958
White Revolution,Georgia,Neo-Nazi,2006,Brooks,33.2925,-84.4588
White Revolution,Tennessee,Neo-Nazi,2006,Decherd,35.2162,-86.0759
White Revolution,Colorado,Neo-Nazi,2006,Estes Park,40.3702,-105.5222
White Revolution,Massachusetts,Neo-Nazi,2006,Haverhill,42.7838,-71.0871
White Revolution,Michigan,Neo-Nazi,2006,Ironwood,46.4522,-90.1505
White Revolution,Florida,Neo-Nazi,2006,Lakeland,28.0557,-81.9543
White Revolution,Oklahoma,Neo-Nazi,2006,Lawton,34.6171,-98.4204
White Revolution,Nebraska,Neo-Nazi,2006,Omaha,41.2628,-96.0495
White Revolution,Arkansas,Neo-Nazi,2006,Russellville,35.2761,-93.1383
White Revolution,New Hampshire,Neo-Nazi,2006,Winchester,42.7769,-72.385
White Working Man's Party,Minnesota,White Nationalist,2006,Minneapolis,44.9635,-93.2678
Whiteheat Productions,California,Hate Music,2006,Santa Ana,33.7366,-117.8819
Women for Aryan Unity,New York,Neo-Nazi,2006,Brooklyn,40.6501,-73.9496
Women for Aryan Unity,Colorado,Neo-Nazi,2006,Denver,39.7621,-104.8759
Women for Aryan Unity,North Carolina,Neo-Nazi,2006,Raleigh,35.8323,-78.6439
World Knights of the KKK,Pennsylvania,Ku Klux Klan,2006,New Castle,40.9956,-80.3458
World Knights of the KKK,Maryland,Ku Klux Klan,2006,Sharpsburg,39.4576,-77.7496
WTM Enterprises,Indiana,White Nationalist,2006,Roanoke,40.964,-85.3761
Yahweh's Truth,Michigan,Christian Identity,2006,Essexville,43.6123,-83.8424
Young Americans for Freedom--Michigan State University,Michigan,General Hate,2006,East Lansing,42.748,-84.4835
