title,state_name,ideology,year,city,lat,lon
11th Hour Remnant Messenger,New Mexico,Christian Identity,2012,Santa Fe,35.6619,-105.9819
88 Boot Boys,Arizona,Racist Skinhead,2012,Phoenix,33.5722,-112.0891
9/11 Christian Center at Ground Zero,New York,Anti-Muslim,2012,New York,40.6943,-73.9249
a2z Publications,Nevada,General Hate,2012,Las Vegas,36.2291,-115.2607
Abiding Truth Ministries,Massachusetts,Anti-LGBT,2012,Springfield,42.1155,-72.5395
Abundant Life Fellowship,Indiana,Christian Identity,2012,Morgantown,39.3729,-86.2585
AC Skins,New Jersey,Racist Skinhead,2012,Absecon,39.4228,-74.4944
AC Skins,New Jersey,Racist Skinhead,2012,Atlantic City,39.3797,-74.4527
AC Skins,New Jersey,Racist Skinhead,2012,Browns Mills,39.9737,-74.569
AC Skins,New Jersey,Racist Skinhead,2012,Linwood,39.3435,-74.5708
AC Skins,New Jersey,Racist Skinhead,2012,Marlton,39.9016,-74.9297
AC Skins,New Jersey,Racist Skinhead,2012,Mays Landing,39.4524,-74.7241
AC Skins,New Jersey,Racist Skinhead,2012,Somers Point,39.3167,-74.6066
AC Skins,New Jersey,Racist Skinhead,2012,Wildwood,38.9877,-74.8188
AC Skins,New Jersey,Racist Skinhead,2012,Woodbine,39.2283,-74.8095
Aggressive Christianity,New Mexico,General Hate,2012,Berino,32.0689,-106.6219
Aggressive Christianity,New Mexico,General Hate,2012,Fence Lake,34.669,-108.6801
All Eyes On Egipt Bookstore,Illinois,Black Nationalist,2012,Chicago,41.8373,-87.6861
All Eyes On Egypt Bookstore,Georgia,Black Nationalist,2012,Macon,32.8407,-83.6324
All Eyes on Egypt Bookstore,Georgia,Black Nationalist,2012,Milledgeville,33.0874,-83.2414
Alliance for Catholic Tradition,Pennsylvania,Radical Traditional Catholicism,2012,Pleasant Unity,40.2395,-79.4509
Alternative Right,Montana,White Nationalist,2012,Whitefish,48.4332,-114.3592
America's Promise Ministries,Idaho,Christian Identity,2012,Sandpoint,48.2832,-116.5613
American Border Patrol,Arizona,Anti-Immigrant,2012,Sierra Vista,31.563,-110.3153
American College of Pediatricians,Florida,Anti-LGBT,2012,Gainesville,29.6808,-82.3455
The American Defence League,New York,Anti-Muslim,2012,New York,40.6943,-73.9249
American Family Association,Pennsylvania,Anti-LGBT,2012,Franklin,41.3936,-79.8425
American Family Association,Mississippi,Anti-LGBT,2012,Tupelo,34.2691,-88.7318
American Free Press,District of Columbia,General Hate,2012,Washington,38.9047,-77.0163
American Freedom Defense Initiative,New York,Anti-Muslim,2012,New York,40.6943,-73.9249
American Front,New Jersey,Racist Skinhead,2012,Hackensack,40.889,-74.0461
American Front,New Jersey,Racist Skinhead,2012,Haledon,40.9363,-74.1887
American Front,Florida,Racist Skinhead,2012,Lynn Haven,30.2361,-85.6389
American Front,New Jersey,Racist Skinhead,2012,Roselle,40.6527,-74.2599
American Front,California,Racist Skinhead,2012,Sacramento,38.5667,-121.4683
American Immigration Control Foundation/Americans for Immigration Control,Virginia,Anti-Immigrant,2012,Monterey,38.4116,-79.5809
American Nationalist Union,Nevada,White Nationalist,2012,Las Vegas,36.2291,-115.2607
American Nazi Party,Michigan,Neo-Nazi,2012,Westland,42.3192,-83.3805
American Renaissance/New Century Foundation,Virginia,White Nationalist,2012,Arlington,38.8786,-77.1011
American Renaissance/New Century Foundation,Virginia,White Nationalist,2012,Oakton,38.8887,-77.3017
American Third Position,Tennessee,White Nationalist,2012,Gatlinburg,35.725,-83.4936
American Third Position,North Dakota,White Nationalist,2012,Grand Forks,47.9223,-97.0887
American Third Position,Florida,White Nationalist,2012,Jacksonville,30.3322,-81.6749
American Third Position,New York,White Nationalist,2012,New York,40.6943,-73.9249
American Third Position,California,White Nationalist,2012,San Diego,32.8312,-117.1226
American Third Position,New Jersey,White Nationalist,2012,Butler,40.9989,-74.3472
American Third Position,Arizona,White Nationalist,2012,Mesa,33.4017,-111.7181
American Third Position,California,White Nationalist,2012,Westminster,33.7523,-117.9938
American Third Position,Nevada,White Nationalist,2012,Las Vegas,36.2291,-115.2607
American Vision,Georgia,Anti-LGBT,2012,Powder Springs,33.866,-84.6838
Americans for Legal Immigration (ALIPAC),North Carolina,Anti-Immigrant,2012,Raleigh,35.8323,-78.6439
Americans for Truth About Homosexuality,Illinois,Anti-LGBT,2012,Naperville,41.7483,-88.1657
The Ark,Washington,Christian Identity,2012,Northport,48.9159,-117.7796
Artisan Publishers,Oklahoma,General Hate,2012,Muskogee,35.743,-95.3566
Aryan Nations,Illinois,Neo-Nazi,2012,Chicago,41.8373,-87.6861
Aryan Nations,Louisiana,Neo-Nazi,2012,Converse,31.7795,-93.7001
Aryan Nations 88,New Jersey,Neo-Nazi,2012,North Bergen,40.8043,-74.0121
Aryan Nations Knights of the KKK,Oklahoma,Ku Klux Klan,2012,Elk City,35.3849,-99.4333
Aryan Nations Knights of the KKK,Louisiana,Ku Klux Klan,2012,Converse,31.7795,-93.7001
Aryan Nations Sinister Souls Motorcycle Club,Illinois,Neo-Nazi,2012,Wood River,38.8633,-90.0773
Aryan Terror Brigade,New Jersey,Racist Skinhead,2012,Fords,40.5416,-74.3124
Aryan Terror Brigade,New Jersey,Racist Skinhead,2012,Wildwood,38.9877,-74.8188
Aryan Terror Brigade,New Jersey,Racist Skinhead,2012,Flemington,40.5087,-74.8599
Aryan Wear,Texas,White Nationalist,2012,Keller,32.9337,-97.2255
As-Sabiqun,California,General Hate,2012,Los Angeles,34.1139,-118.4068
As-Sabiqun,California,General Hate,2012,Oakland,37.7903,-122.2165
As-Sabiqun,Pennsylvania,General Hate,2012,Philadelphia,40.0076,-75.134
As-Sabiqun,California,General Hate,2012,Sacramento,38.5667,-121.4683
As-Sabiqun,California,General Hate,2012,San Diego,32.8312,-117.1226
As-Sabiqun,District of Columbia,General Hate,2012,Washington,38.9047,-77.0163
Atlas Shrugs,New York,Anti-Muslim,2012,New York,40.6943,-73.9249
"Barnes Review/Foundation for Economic Liberty, Inc.",District of Columbia,Holocaust Denial,2012,Washington,38.9047,-77.0163
"Barnhardt Capital Management, Inc.",Colorado,General Hate,2012,Lone Tree,39.5308,-104.871
Bergen County Hooligans,New Jersey,Racist Skinhead,2012,Garfield,40.8791,-74.1085
Bergen County Hooligans,New Jersey,Racist Skinhead,2012,Wallington,40.8535,-74.1069
Black Hebrew Israelites,California,Black Nationalist,2012,San Diego,32.8312,-117.1226
Blood and Honour U.S.A,New Jersey,Racist Skinhead,2012,Fords,40.5416,-74.3124
Blood and Honour U.S.A,Colorado,Racist Skinhead,2012,Littleton,39.5911,-105.0194
Blood and Honour U.S.A,Ohio,Racist Skinhead,2012,Salem,40.9049,-80.8491
Blood and Honour U.S.A,Texas,Racist Skinhead,2012,Richardson,32.9717,-96.7092
National Coalition for Immigration Reform (formerly California Coalition for Immigration Reform),California,Anti-Immigrant,2012,Huntington Beach,33.696,-118.0025
Castle Hill Publishers,New York,Holocaust Denial,2012,New York,40.6943,-73.9249
"Catholic Apologetics International Publishing, Inc.",Pennsylvania,Radical Traditional Catholicism,2012,State Line,39.7329,-77.7247
Catholic Counterpoint,Pennsylvania,Radical Traditional Catholicism,2012,Broomall,39.9694,-75.3529
"Catholic Family News/Catholic Family Ministries, Inc.",New York,Radical Traditional Catholicism,2012,Niagara Falls,43.0921,-79.0147
CatholicActionResearchCenter.com,Florida,Radical Traditional Catholicism,2012,Orlando,28.4788,-81.342
Caucasian Persuasion,New York,White Nationalist,2012,New York,40.6943,-73.9249
Center for Perpetual Diversity,Maryland,White Nationalist,2012,Gaithersburg,39.1347,-77.213
Chalcedon Foundation,California,Anti-LGBT,2012,Vallecito,38.074,-120.4563
Charles Darwin Research Institute,Michigan,White Nationalist,2012,Port Huron,42.9822,-82.4387
Chick Publications,California,General Hate,2012,Ontario,34.0393,-117.6064
Christian Action Network,Virginia,Anti-Muslim,2012,Forest,37.3728,-79.2831
Christian Anti-Defamation Commission,California,General Hate,2012,Vista,33.1895,-117.2387
Christian Books and Things,Arkansas,General Hate,2012,Harrison,36.2437,-93.1197
Christian Defense League,Louisiana,Neo-Nazi,2012,Mandeville,30.375,-90.0906
Christian Guardians,California,Anti-Muslim,2012,San Francisco,37.7562,-122.443
Christian Phalange,North Carolina,Anti-Muslim,2012,Newton,35.663,-81.2333
The church at Kaweah,California,General Hate,2012,Kaweah,36.4697,-118.9184
Church of God's Chosen,Alabama,Christian Identity,2012,Beaverton,33.9354,-88.0218
Church of Jesus Christ Christian/Aryan Nations,Arkansas,Christian Identity,2012,Bergman,36.3128,-93.0115
Church of the Sons of YHVH,Louisiana,Christian Identity,2012,Converse,31.7795,-93.7001
Citizen Warrior,Tennessee,Anti-Muslim,2012,Nashville,36.1714,-86.7844
Citizens for National Security,Florida,Anti-Muslim,2012,Boca Raton,26.3749,-80.1077
Concerned American Citizens,California,Anti-Muslim,2012,Wildomar,33.6173,-117.2582
Concerned Citizens and Friends of Illegal Immigration Law Enforcement,Massachusetts,General Hate,2012,Framingham,42.3085,-71.4368
Concerned Citizens for the First Amendment,California,Anti-Muslim,2012,Hemet,33.7341,-116.9969
Confederate Hammerskins,South Carolina,Racist Skinhead,2012,Elgin,34.1703,-80.793
Confederate Hammerskins,Alabama,Racist Skinhead,2012,Huntsville,34.6989,-86.6414
Confederate Hammerskins,Florida,Racist Skinhead,2012,Jacksonville,30.3322,-81.6749
Confederate Hammerskins,Tennessee,Racist Skinhead,2012,Nashville,36.1714,-86.7844
Confederate Hammerskins,Florida,Racist Skinhead,2012,Ocala,29.1803,-82.1495
Confederate Hammerskins,Virginia,Racist Skinhead,2012,Richmond,37.5295,-77.4756
Confederate Hammerskins,Florida,Racist Skinhead,2012,Tampa,27.9937,-82.4454
Confederate Hammerskins,Florida,Racist Skinhead,2012,Orlando,28.4788,-81.342
Confederate Patriot Voters United,Mississippi,White Nationalist,2012,Baldwyn,34.5071,-88.6416
COORS Family Skinheads,California,Racist Skinhead,2012,Riverside,33.9381,-117.3948
Council for Social and Economic Studies,District of Columbia,White Nationalist,2012,Washington,38.9047,-77.0163
Council of Conservative Citizens,Florida,White Nationalist,2012,Beverly Hills,28.9175,-82.4541
Council of Conservative Citizens,Alabama,White Nationalist,2012,Birmingham,33.5276,-86.7988
Council of Conservative Citizens,Mississippi,White Nationalist,2012,Calhoun City,33.8588,-89.3145
Council of Conservative Citizens,North Carolina,White Nationalist,2012,Clemmons,36.0318,-80.3861
Council of Conservative Citizens,Tennessee,White Nationalist,2012,Cleveland,35.1817,-84.8707
Council of Conservative Citizens,Alabama,White Nationalist,2012,Cullman,34.1791,-86.8402
Council of Conservative Citizens,Alabama,White Nationalist,2012,Florence,34.83,-87.6658
Council of Conservative Citizens,New Jersey,White Nationalist,2012,Fort Lee,40.8509,-73.9712
Council of Conservative Citizens,Tennessee,White Nationalist,2012,Franklin,35.9214,-86.8524
Council of Conservative Citizens,Mississippi,White Nationalist,2012,Greenwood,33.5126,-90.1993
Council of Conservative Citizens,Mississippi,White Nationalist,2012,Holly Springs,34.7768,-89.4466
Council of Conservative Citizens,Mississippi,White Nationalist,2012,Jackson,32.3163,-90.2124
Council of Conservative Citizens,Florida,White Nationalist,2012,Jacksonville,30.3322,-81.6749
Council of Conservative Citizens,Alabama,White Nationalist,2012,Jasper,33.8514,-87.2719
Council of Conservative Citizens,Missouri,White Nationalist,2012,Kansas City,39.1239,-94.5541
Council of Conservative Citizens,Mississippi,White Nationalist,2012,Mathiston,33.539,-89.1277
Council of Conservative Citizens,Tennessee,White Nationalist,2012,Memphis,35.1047,-89.9773
Council of Conservative Citizens,Alabama,White Nationalist,2012,Montgomery,32.347,-86.2663
Council of Conservative Citizens,New York,White Nationalist,2012,New York,40.6943,-73.9249
Council of Conservative Citizens,New York,White Nationalist,2012,Parishville,44.6257,-74.8004
Council of Conservative Citizens,Mississippi,White Nationalist,2012,Piney Woods,32.0627,-89.9929
Council of Conservative Citizens,North Carolina,White Nationalist,2012,Raleigh,35.8323,-78.6439
Council of Conservative Citizens,California,White Nationalist,2012,San Francisco,37.7562,-122.443
Council of Conservative Citizens,Louisiana,White Nationalist,2012,Shreveport,32.4659,-93.7959
Council of Conservative Citizens,Maryland,White Nationalist,2012,Silver Spring,39.0028,-77.0207
Council of Conservative Citizens,Mississippi,White Nationalist,2012,Tupelo,34.2691,-88.7318
Council of Conservative Citizens,Mississippi,White Nationalist,2012,Vaiden,33.3332,-89.7533
Council of Conservative Citizens,South Carolina,White Nationalist,2012,West Columbia,33.9925,-81.0919
Council of Conservative Citizens,Maryland,White Nationalist,2012,Baltimore,39.3051,-76.6144
Counter-Currents Publishing,California,White Nationalist,2012,San Francisco,37.7562,-122.443
Covenant People's Ministry,Georgia,Christian Identity,2012,Brooks,33.2925,-84.4588
The Creativity Alliance,California,Neo-Nazi,2012,Clovis,36.8278,-119.6841
The Creativity Alliance,Utah,Neo-Nazi,2012,Draper,40.4956,-111.8607
The Creativity Alliance,Tennessee,Neo-Nazi,2012,Mountain City,36.4695,-81.8049
The Creativity Alliance,Pennsylvania,Neo-Nazi,2012,Philadelphia,40.0076,-75.134
Creativity Movement,Missouri,Neo-Nazi,2012,Kansas City,39.1239,-94.5541
Creativity Movement,Wisconsin,Neo-Nazi,2012,Mountain,45.1864,-88.4681
The Creativity Movement,Montana,Neo-Nazi,2012,Billings,45.7889,-108.5503
The Creativity Movement,Ohio,Neo-Nazi,2012,Covington,40.1174,-84.3508
The Creativity Movement,Florida,Neo-Nazi,2012,Palm Bay,27.9861,-80.6628
The Creativity Movement,Illinois,Neo-Nazi,2012,Zion,42.4598,-87.8509
Crescenta Valley European American Society,California,White Nationalist,2012,La Crescenta,34.2242,-118.2401
Crew 38,Maryland,Racist Skinhead,2012,Baltimore,39.3051,-76.6144
Crew 38,Illinois,Racist Skinhead,2012,Chicago,41.8373,-87.6861
Crew 38,Alabama,Racist Skinhead,2012,Huntsville,34.6989,-86.6414
Crew 38,Florida,Racist Skinhead,2012,Lakeland,28.0557,-81.9543
Crew 38,California,Racist Skinhead,2012,San Diego,32.8312,-117.1226
The Crocker Post,Vermont,White Nationalist,2012,Montpelier,44.2658,-72.5717
Crusaders for Yahweh,California,Christian Identity,2012,Alta Loma,34.1222,-117.5981
Crusaders for Yahweh,Texas,Christian Identity,2012,Amarillo,35.1988,-101.8308
Crusaders for Yahweh,Nevada,Christian Identity,2012,Beatty,36.9352,-116.7025
Crusaders for Yahweh,Washington,Christian Identity,2012,Bellingham,48.7543,-122.4687
Crusaders for Yahweh,Montana,Christian Identity,2012,Big Sandy,48.1785,-110.1134
Crusaders for Yahweh,Montana,Christian Identity,2012,Billings,45.7889,-108.5503
Crusaders for Yahweh,North Dakota,Christian Identity,2012,Bismarck,46.814,-100.7695
Crusaders for Yahweh,Idaho,Christian Identity,2012,Boise,43.6006,-116.2316
Crusaders for Yahweh,Idaho,Christian Identity,2012,Coeur d'Alene,47.7039,-116.7933
Crusaders for Yahweh,Oregon,Christian Identity,2012,Coos Bay,43.3789,-124.233
Crusaders for Yahweh,Texas,Christian Identity,2012,Dallas,32.7937,-96.7662
Crusaders for Yahweh,Michigan,Christian Identity,2012,Detroit,42.3834,-83.1024
Crusaders for Yahweh,Minnesota,Christian Identity,2012,Duluth,46.7757,-92.1392
Crusaders for Yahweh,Wisconsin,Christian Identity,2012,Eau Claire,44.8203,-91.4951
Crusaders for Yahweh,Washington,Christian Identity,2012,Everett,47.9524,-122.167
Crusaders for Yahweh,Texas,Christian Identity,2012,Falls City,28.9822,-98.0217
Crusaders for Yahweh,Montana,Christian Identity,2012,Great Falls,47.5022,-111.2995
Crusaders for Yahweh,Nevada,Christian Identity,2012,Las Vegas,36.2291,-115.2607
Crusaders for Yahweh,Florida,Christian Identity,2012,Miami,25.784,-80.2102
Crusaders for Yahweh,Idaho,Christian Identity,2012,Moscow,46.7307,-116.9986
Crusaders for Yahweh,Georgia,Christian Identity,2012,Norcross,33.9378,-84.2065
Crusaders for Yahweh,Arizona,Christian Identity,2012,Phoenix,33.5722,-112.0891
Crusaders for Yahweh,Idaho,Christian Identity,2012,Post Falls,47.7202,-116.9397
Crusaders for Yahweh,Utah,Christian Identity,2012,Salt Lake City,40.7774,-111.9301
Crusaders for Yahweh,Washington,Christian Identity,2012,Spokane,47.6671,-117.433
Crusaders for Yahweh,Florida,Christian Identity,2012,Tampa,27.9937,-82.4454
Crusaders for Yahweh,Idaho,Christian Identity,2012,Twin Falls,42.5645,-114.4611
Crusaders for Yahweh,North Dakota,Christian Identity,2012,West Fargo,46.8566,-96.9047
Crusaders for Yahweh,Ohio,Christian Identity,2012,Chillicothe,39.3393,-82.9937
Cultural Studies Press,New York,General Hate,2012,New York,40.6943,-73.9249
Culture Wars/Fidelity Press,Indiana,Radical Traditional Catholicism,2012,South Bend,41.6771,-86.2692
The Dakota Voice,South Dakota,General Hate,2012,Rapid City,44.0716,-103.2205
DefendStudents.org,California,General Hate,2012,Vista,33.1895,-117.2387
Desastrious Records,Texas,Hate Music,2012,Springtown,32.9695,-97.6805
Diehard Records,Ohio,Hate Music,2012,Chesapeake,38.4298,-82.4488
Dixie Rangers Knights of the KKK,Louisiana,Ku Klux Klan,2012,Walker,30.4848,-90.8654
Dixie Republic,South Carolina,Neo-Confederate,2012,Travelers Rest,34.9684,-82.4417
Dove World Outreach Center,Florida,General Hate,2012,Gainesville,29.6808,-82.3455
East Valley Skins,Arizona,Racist Skinhead,2012,Mesa,33.4017,-111.7181
Eastern Hammerskins,Pennsylvania,Racist Skinhead,2012,Allentown,40.5961,-75.4756
Ecclesiastical Council for the Restoration of Covenant Israel (ECRCI),Illinois,Christian Identity,2012,Chicago,41.8373,-87.6861
Empire Knights of the KKK,Texas,Ku Klux Klan,2012,Baytown,29.7607,-94.9628
Empire Knights of the KKK,Texas,Ku Klux Klan,2012,Denton,33.2176,-97.1421
Empire Knights of the KKK,New Hampshire,Ku Klux Klan,2012,Dover,43.1887,-70.8845
Escaping Islam,California,Anti-Muslim,2012,Wildomar,33.6173,-117.2582
European American Action Coalition,Pennsylvania,White Nationalist,2012,Pittston,41.3274,-75.7885
European-American Evangelistic Crusades,California,General Hate,2012,Carmichael,38.6336,-121.3229
European-American Unity and Rights Organization,Ohio,White Nationalist,2012,Cleveland,41.4767,-81.6805
European-American Unity and Rights Organization,South Carolina,White Nationalist,2012,Columbia,34.037,-80.9042
European-American unity and Rights Organization,Georgia,White Nationalist,2012,Columbus,32.51,-84.8771
European-American Unity and Rights Organization,Texas,White Nationalist,2012,Irving,32.8584,-96.9702
European-American Unity and Rights Organization,Florida,White Nationalist,2012,Jacksonville,30.3322,-81.6749
European-American Unity and Rights Organization,Virginia,White Nationalist,2012,Richmond,37.5295,-77.4756
European-American Unity and Rights Organization,Mississippi,White Nationalist,2012,Ripley,34.7321,-88.9444
European-American Unity and Rights Organization,Georgia,White Nationalist,2012,Savannah,32.0282,-81.1786
European-American Unity and Rights Organization,Louisiana,White Nationalist,2012,Thibodaux,29.7941,-90.8163
European-American Unity and Rights Organization,Oklahoma,White Nationalist,2012,Tulsa,36.1284,-95.9042
European-American Unity and Rights Organization,South Carolina,White Nationalist,2012,Woodruff,34.7397,-82.0323
European-American Unity and Rights Organization,Louisiana,White Nationalist,2012,Mandeville,30.375,-90.0906
Faith Baptist Church and Ministry,Missouri,Christian Identity,2012,Houston,37.3212,-91.9611
Faith Freedom,Washington,Anti-Muslim,2012,Bellevue,47.5953,-122.1551
Faithful Word Baptist Church,Arizona,Anti-LGBT,2012,Tempe,33.3881,-111.9318
Family Home Northwest,Idaho,White Nationalist,2012,Payette,44.0789,-116.9256
Family Research Council,District of Columbia,Anti-LGBT,2012,Washington,38.9047,-77.0163
Family Research Institute,Colorado,Anti-LGBT,2012,Colorado Springs,38.8674,-104.7606
Family Watch International,Arizona,Anti-LGBT,2012,Gilbert,33.3103,-111.7463
Federation for American Immigration Reform,District of Columbia,Anti-Immigrant,2012,Washington,38.9047,-77.0163
Fellowship of God's Covenant People,Kentucky,Christian Identity,2012,Union,38.9472,-84.6731
First Century Christian Ministries,Texas,Christian Identity,2012,The Woodlands,30.1738,-95.5134
The Fitzgerald Griffin Foundation,Virginia,White Nationalist,2012,Vienna,38.8996,-77.2597
Florida Family Association,Florida,Anti-Muslim,2012,Tampa,27.9937,-82.4454
The Forssaken Motorcycle Club,Arkansas,Neo-Nazi,2012,Center Ridge,35.3806,-92.5702
Fraternal White Knights of the KKK,Ohio,Ku Klux Klan,2012,Amelia,39.0229,-84.2185
Fraternal White Knights of the KKK,Iowa,Ku Klux Klan,2012,Charles City,43.0644,-92.6745
Fraternal White Knights of the KKK,Mississippi,Ku Klux Klan,2012,Lucedale,30.9312,-88.5959
Fraternal White Knights of the KKK,New York,Ku Klux Klan,2012,Plattsburgh,44.6951,-73.4563
Fraternal White Knights of the KKK,Tennessee,Ku Klux Klan,2012,Woodbury,35.8247,-86.0725
Free American,Arizona,White Nationalist,2012,Tucson,32.1546,-110.8782
Freedom Defense Initiative (FDI),New York,Anti-Muslim,2012,New York,40.6943,-73.9249
Fundamentalist Latter Day Saints,Arizona,General Hate,2012,Colorado City,36.9774,-112.983
Fundamentalist Latter Day Saints,Texas,General Hate,2012,Eldorado,30.8617,-100.5979
Fundamentalist Latter Day Saints,Colorado,General Hate,2012,Mancos,37.3466,-108.2939
Fundamentalist Latter Day Saints,South Dakota,General Hate,2012,Pringle,43.609,-103.5946
Fundamentalist Latter Day Saints,Colorado,General Hate,2012,Westcliffe,38.134,-105.4654
Fundamentalist Latter Day Saints,Utah,General Hate,2012,Hildale,37.0171,-112.9786
Gallows Tree Wotansvolk Alliance,Michigan,Neo-Volkisch,2012,Grand Rapids,42.9615,-85.6557
Geauga Constitutional Council,Ohio,General Hate,2012,Mayfield Heights,41.5175,-81.4534
Get Some 88,California,Hate Music,2012,Castaic,34.4818,-118.6317
Gold is Money,Colorado,Anti-Muslim,2012,Lone Tree,39.5308,-104.871
H.L. Mencken Club,New York,White Nationalist,2012,Brooklyn,40.6501,-73.9496
Heterosexuals Organized for a Moral Environment (H.O.M.E.),Illinois,Anti-LGBT,2012,Downers Grove,41.7949,-88.017
The Hated,Pennsylvania,Racist Skinhead,2012,Philadelphia,40.0076,-75.134
The Hated,New Jersey,Racist Skinhead,2012,Toms River,39.9931,-74.1856
The Hated,Florida,Racist Skinhead,2012,Gainesville,29.6808,-82.3455
Help Rescue Our Children,New York,Anti-LGBT,2012,Monsey,41.1181,-74.0681
Heritage and Destiny,Virginia,White Nationalist,2012,Falls Church,38.8847,-77.1751
Heritage Connection,Arkansas,Hate Music,2012,Harrison,36.2437,-93.1197
Holy Nation of Odin,California,General Hate,2012,Kingsburg,36.5242,-119.5608
IHS Press,Texas,Radical Traditional Catholicism,2012,Odessa,31.8831,-102.3407
Illinois European Heritage Association,Illinois,White Nationalist,2012,Wood River,38.8633,-90.0773
Illinois Family Institute,Illinois,Anti-LGBT,2012,Carol Stream,41.9183,-88.1309
In the Spirit of Chartres Committee,Virginia,Radical Traditional Catholicism,2012,Suffolk,36.6953,-76.6398
Insight USA,Florida,General Hate,2012,Longwood,28.7018,-81.3488
Institute for Historical Review Store,California,Holocaust Denial,2012,Newport Beach,33.6151,-117.8669
Institute for Historical Review,California,Holocaust Denial,2012,Fountain Valley,33.7105,-117.9514
The International Conspiratological Association,Idaho,Holocaust Denial,2012,Coeur d'Alene,47.7039,-116.7933
International Keystone Knights of the KKK,Georgia,Ku Klux Klan,2012,Blairsville,34.8761,-83.9548
International Keystone Knights of the KKK,Ohio,Ku Klux Klan,2012,Cleveland,41.4767,-81.6805
International Keystone Knights of the KKK,Indiana,Ku Klux Klan,2012,Elwood,40.2743,-85.8371
International Keystone Knights of the KKK,Georgia,Ku Klux Klan,2012,Young Harris,34.9355,-83.8471
International Keystone Knights of the KKK,Arkansas,Ku Klux Klan,2012,Vanndale,35.3134,-90.774
International Keystone Knights of the KKK,Alabama,Ku Klux Klan,2012,Pinson,33.7062,-86.6655
Invictus Books,Missouri,General Hate,2012,Wentzville,38.8164,-90.867
Irving Books,Florida,Holocaust Denial,2012,Key West,24.5636,-81.7769
ISD Records,Ohio,Hate Music,2012,Lancaster,39.7249,-82.6049
Islam: Making a True Difference in the World -- One Body at a Time,Georgia,Anti-Muslim,2012,Marietta,33.9532,-84.5421
islam: the Religion of Peace (and a big stack of dead bodies),Georgia,Anti-Muslim,2012,Marietta,33.9532,-84.5421
Islamthreat.com,California,Anti-Muslim,2012,Walnut Creek,37.9025,-122.0398
Israelite Church of God in Jesus Christ,Oregon,Black Nationalist,2012,Beaverton,45.4779,-122.8168
Israelite Church of God in Jesus Christ,Pennsylvania,Black Nationalist,2012,Coatesville,39.9849,-75.8199
Israelite Church of God in Jesus Christ,North Carolina,Black Nationalist,2012,Goldsboro,35.3777,-77.972
Israelite Church of God in Jesus Christ,New Jersey,Black Nationalist,2012,Jersey City,40.7161,-74.0682
Israelite Church of God in Jesus Christ,Oklahoma,Black Nationalist,2012,Lawton,34.6171,-98.4204
Israelite Church of God in Jesus Christ,Pennsylvania,Black Nationalist,2012,Norristown,40.1224,-75.3399
Israelite Church of God in Jesus Christ,Pennsylvania,Black Nationalist,2012,Philadelphia,40.0076,-75.134
Israelite Church of God in Jesus Christ,Oklahoma,Black Nationalist,2012,Tulsa,36.1284,-95.9042
Israelite Church of God in Jesus Christ,New Jersey,Black Nationalist,2012,Vineland,39.4653,-74.9981
The Israelite Church of God in Jesus Christ,Pennsylvania,Black Nationalist,2012,Allentown,40.5961,-75.4756
The Israelite Church of God in Jesus Christ,New Jersey,Black Nationalist,2012,Asbury Park,40.2226,-74.0117
The Israelite Church of God in Jesus Christ,Maryland,Black Nationalist,2012,Baltimore,39.3051,-76.6144
The Israelite Church of God in Jesus Christ,New Jersey,Black Nationalist,2012,Camden,39.9361,-75.1073
The Israelite Church of God in Jesus Christ,North Carolina,Black Nationalist,2012,Fayetteville,35.0846,-78.9776
The Israelite Church of God in Jesus Christ,Florida,Black Nationalist,2012,Fort Myers,26.6195,-81.8302
The Israelite Church of God in Jesus Christ,Missouri,Black Nationalist,2012,Kansas City,39.1239,-94.5541
The Israelite Church of God in Jesus Christ,Florida,Black Nationalist,2012,North Miami,25.9006,-80.1681
The Israelite Church of God in Jesus Christ,Oklahoma,Black Nationalist,2012,Oklahoma City,35.4676,-97.5136
The Israelite Church of God in Jesus Christ,Nebraska,Black Nationalist,2012,Omaha,41.2628,-96.0495
The Israelite Church of God in Jesus Christ,Florida,Black Nationalist,2012,Orlando,28.4788,-81.342
The Israelite Church of God in Jesus Christ,Pennsylvania,Black Nationalist,2012,Pittsburgh,40.4396,-79.9763
The Israelite Church of God in Jesus Christ,Oregon,Black Nationalist,2012,Portland,45.5372,-122.65
The Israelite Church of God in Jesus Christ,District of Columbia,Black Nationalist,2012,Washington,38.9047,-77.0163
The Israelite Church of God in Jesus Christ,Florida,Black Nationalist,2012,West Palm Beach,26.7467,-80.1314
The Israelite Church of God in Jesus Christ,North Carolina,Black Nationalist,2012,Wilmington,34.21,-77.886
The Israelite Church of God in Jesus Christ,New York,Black Nationalist,2012,New York,40.6943,-73.9249
Jamaat al-Muslimeen,Maryland,General Hate,2012,Baltimore,39.3051,-76.6144
Jewish Defense League,Florida,General Hate,2012,Fort Lauderdale,26.1412,-80.1464
Jewish Defense League,California,General Hate,2012,San Diego,32.8312,-117.1226
Jewish Defense League,Illinois,General Hate,2012,Skokie,42.0359,-87.74
Jewish Defense League,California,General Hate,2012,Los Angeles,34.1139,-118.4068
Keystone State Skinheads,Pennsylvania,Racist Skinhead,2012,Philadelphia,40.0076,-75.134
Keystone State Skinheads,Pennsylvania,Racist Skinhead,2012,Harrisburg,40.2752,-76.8843
Kingdom Identity Ministries,Arkansas,Christian Identity,2012,Harrison,36.2437,-93.1197
Kingdom Treasure Ministries,Oklahoma,Neo-Confederate,2012,Owasso,36.2886,-95.8319
The Kinist Institute,Florida,White Nationalist,2012,Orlando,28.4788,-81.342
Kinsman Redeemer Ministries,Kentucky,Christian Identity,2012,Alexandria,38.9622,-84.386
KKK LLC,Arkansas,Hate Music,2012,Compton,36.0967,-93.3027
Knight Riders Knights of the KKK,Virginia,Ku Klux Klan,2012,Abingdon,36.7089,-81.9713
Knight Riders Knights of the KKK,Georgia,Ku Klux Klan,2012,Bainbridge,30.9046,-84.5722
Knight Riders Knights of the KKK,Georgia,Ku Klux Klan,2012,Brunswick,31.145,-81.474
Knight Riders Knights of the KKK,Georgia,Ku Klux Klan,2012,Byron,32.6475,-83.754
Knight Riders Knights of the KKK,Illinois,Ku Klux Klan,2012,Eldorado,37.8113,-88.4416
Knight Riders Knights of the KKK,Florida,Ku Klux Klan,2012,Live Oak,30.2956,-82.9846
Knight Riders Knights of the KKK,Georgia,Ku Klux Klan,2012,Rochelle,31.9488,-83.4568
Knight Riders Knights of the KKK,Georgia,Ku Klux Klan,2012,Ellijay,34.6912,-84.484
Knights of the Holy Cross of the KKK,Ohio,Ku Klux Klan,2012,Mount Victory,40.5335,-83.5203
Knights of the Ku Klux Klan,Arkansas,Ku Klux Klan,2012,Concord,35.6625,-91.849
Knights of the Ku Klux Klan,Tennessee,Ku Klux Klan,2012,Newport,35.9617,-83.1977
Knights of the Ku Klux Klan,Arkansas,Ku Klux Klan,2012,Harrison,36.2437,-93.1197
Ku Klos Knights of the KKK,Tennessee,Ku Klux Klan,2012,Church Hill,36.5206,-82.7142
League of the South,Alabama,Neo-Confederate,2012,Anniston,33.6713,-85.8136
League of the South,Florida,Neo-Confederate,2012,Archer,29.5395,-82.5137
League of the South,Georgia,Neo-Confederate,2012,Barnesville,33.0511,-84.1526
League of the South,Alabama,Neo-Confederate,2012,Birmingham,33.5276,-86.7988
League of the South,South Carolina,Neo-Confederate,2012,Columbia,34.037,-80.9042
League of the South,Kentucky,Neo-Confederate,2012,Crofton,37.0477,-87.4842
League of the South,Alabama,Neo-Confederate,2012,Hackneyville,33.0567,-85.9312
League of the South,Florida,Neo-Confederate,2012,Jacksonville,30.3322,-81.6749
League of the South,Tennessee,Neo-Confederate,2012,Lobelville,35.7507,-87.7958
League of the South,Louisiana,Neo-Confederate,2012,Logansport,31.9755,-93.9934
League of the South,Georgia,Neo-Confederate,2012,Macon,32.8407,-83.6324
League of the South,Arkansas,Neo-Confederate,2012,Mammoth Spring,36.4924,-91.5413
League of the South,Mississippi,Neo-Confederate,2012,Mendenhall,31.9609,-89.8694
League of the South,Virginia,Neo-Confederate,2012,Ruther Glen,37.9287,-77.4558
League of the South,California,Neo-Confederate,2012,Scotts Valley,37.0555,-122.0118
League of the South,Georgia,Neo-Confederate,2012,Statesboro,32.4376,-81.775
League of the South,Alabama,Neo-Confederate,2012,Tuscaloosa,33.2349,-87.5267
League of the South,Alabama,Neo-Confederate,2012,Weogufka,33.0267,-86.3169
League of the South,Missouri,Neo-Confederate,2012,West Plains,36.7378,-91.868
League of the South,Alabama,Neo-Confederate,2012,Wetumpka,32.5407,-86.2057
League of the South,North Carolina,Neo-Confederate,2012,Wilmington,34.21,-77.886
League of the South,Alabama,Neo-Confederate,2012,Killen,34.8607,-87.5269
League of the South/Southern Patriot Super Store,South Carolina,Neo-Confederate,2012,Abbeville,34.1787,-82.3774
Lighthouse Literature,Indiana,White Nationalist,2012,Indianapolis,39.7771,-86.1458
Livin' the Legacy,Indiana,Neo-Confederate,2012,Nashville,39.208,-86.2382
Lone Star United,Texas,Racist Skinhead,2012,Houston,29.7868,-95.3905
Lone Star United,Texas,Racist Skinhead,2012,Dallas,32.7937,-96.7662
Lone Wolf Brigade Knights - Knights of the KKK,Texas,Ku Klux Klan,2012,Baytown,29.7607,-94.9628
Loyal White Knights of the KKK,North Carolina,Ku Klux Klan,2012,Benson,35.3859,-78.5437
Loyal White Knights of the KKK,Pennsylvania,Ku Klux Klan,2012,Export,40.417,-79.6232
Loyal White Knights of the KKK,Indiana,Ku Klux Klan,2012,Kokomo,40.464,-86.1277
Loyal White Knights of the KKK,North Carolina,Ku Klux Klan,2012,Pelham,36.5101,-79.4717
Loyal White Knights of the KKK,North Carolina,Ku Klux Klan,2012,Eden,36.5029,-79.7421
Mary Noel Kershaw Foundation,Tennessee,Neo-Confederate,2012,Lobelville,35.7507,-87.7958
Maryland National Socialist Party,Maryland,Neo-Nazi,2012,Elkridge,39.1941,-76.7427
Maryland State Skinheads,Maryland,Racist Skinhead,2012,Baltimore,39.3051,-76.6144
Masjid al Islam,California,General Hate,2012,Oakland,37.7903,-122.2165
Masjid al Islam,District of Columbia,General Hate,2012,Washington,38.9047,-77.0163
Mass Resistance,Massachusetts,Anti-LGBT,2012,Waltham,42.3889,-71.2423
Micetrap Distribution,New Jersey,Hate Music,2012,Maple Shade,39.9526,-74.9924
Middle American News,North Carolina,White Nationalist,2012,Raleigh,35.8323,-78.6439
Midland Hammerskins,Oklahoma,Racist Skinhead,2012,Tulsa,36.1284,-95.9042
Midland Hammerskins,Kansas,Racist Skinhead,2012,Wichita,37.6897,-97.3442
Midtown Boot Boys,Arizona,Racist Skinhead,2012,Phoenix,33.5722,-112.0891
Mission to Israel,Nebraska,Christian Identity,2012,Scottsbluff,41.8677,-103.6619
Mission: America,Ohio,Anti-LGBT,2012,Columbus,39.986,-82.9852
Mississippi White Knights of the KKK,Mississippi,Ku Klux Klan,2012,Brookhaven,31.5803,-90.4432
Mississippi White Knights of the KKK,Mississippi,Ku Klux Klan,2012,Jackson,32.3163,-90.2124
Mississippi White Knights of the KKK,Mississippi,Ku Klux Klan,2012,Meridian,32.3846,-88.6897
Mississippi White Knights of the KKK,Mississippi,Ku Klux Klan,2012,Mize,31.8672,-89.5541
Mississippi White Knights of the KKK,Mississippi,Ku Klux Klan,2012,Pearl,32.273,-90.0918
Mississippi White Knights of the KKK,Mississippi,Ku Klux Klan,2012,Philadelphia,32.7761,-89.1221
Mississippi White Knights of the KKK,Mississippi,Ku Klux Klan,2012,Ripley,34.7321,-88.9444
Mississippi White Knights of the KKK,Mississippi,Ku Klux Klan,2012,Shannon,34.1144,-88.6931
Mississippi White Knights of the KKK,Mississippi,Ku Klux Klan,2012,Star,32.094,-90.0462
Mississippi White Knights of the KKK,Mississippi,Ku Klux Klan,2012,Tupelo,34.2691,-88.7318
Mississippi White Knights of the KKK,Mississippi,Ku Klux Klan,2012,Petal,31.3477,-89.2359
Most Holy Family Monastery,New York,Radical Traditional Catholicism,2012,Fillmore,42.4669,-78.1107
MSR Productions,Colorado,Hate Music,2012,Wheat Ridge,39.7728,-105.1031
Nation of Islam,Ohio,Black Nationalist,2012,Akron,41.0802,-81.5219
Nation of Islam,Georgia,Black Nationalist,2012,Albany,31.5776,-84.1762
Nation of Islam,Georgia,Black Nationalist,2012,Atlanta,33.7626,-84.4228
Nation of Islam,New Jersey,Black Nationalist,2012,Atlantic City,39.3797,-74.4527
Nation Of Islam,Georgia,Black Nationalist,2012,Augusta,33.3645,-82.0708
Nation of Islam,Colorado,Black Nationalist,2012,Aurora,39.7084,-104.7274
Nation of Islam,Texas,Black Nationalist,2012,Austin,30.3006,-97.7517
Nation of Islam,Maryland,Black Nationalist,2012,Baltimore,39.3051,-76.6144
Nation of Islam,Louisiana,Black Nationalist,2012,Baton Rouge,30.4423,-91.1314
Nation of Islam,Alabama,Black Nationalist,2012,Birmingham,33.5276,-86.7988
Nation of Islam,Massachusetts,Black Nationalist,2012,Boston,42.3188,-71.0846
Nation of Islam,Connecticut,Black Nationalist,2012,Bridgeport,41.1909,-73.1958
Nation of Islam,New York,Black Nationalist,2012,Brooklyn,40.6501,-73.9496
Nation of Islam,New York,Black Nationalist,2012,Buffalo,42.9017,-78.8487
Nation of Islam,New Jersey,Black Nationalist,2012,Camden,39.9361,-75.1073
Nation of Islam,South Carolina,Black Nationalist,2012,Charleston,32.8137,-79.9643
Nation of Islam,North Carolina,Black Nationalist,2012,Charlotte,35.2079,-80.8303
Nation of Islam,Pennsylvania,Black Nationalist,2012,Chester,39.8456,-75.3719
Nation of Islam,Ohio,Black Nationalist,2012,Cincinnati,39.1412,-84.5059
Nation of Islam,Ohio,Black Nationalist,2012,Cleveland,41.4767,-81.6805
Nation of Islam,South Carolina,Black Nationalist,2012,Columbia,34.037,-80.9042
Nation of Islam,Georgia,Black Nationalist,2012,Columbus,32.51,-84.8771
Nation of Islam,Ohio,Black Nationalist,2012,Columbus,39.986,-82.9852
Nation of Islam,California,Black Nationalist,2012,Compton,33.893,-118.2275
Nation of Islam,Texas,Black Nationalist,2012,Dallas,32.7937,-96.7662
Nation of Islam,Ohio,Black Nationalist,2012,Dayton,39.7797,-84.1998
Nation of Islam,Alabama,Black Nationalist,2012,Decatur,34.573,-86.9905
Nation of Islam,Michigan,Black Nationalist,2012,Detroit,42.3834,-83.1024
Nation of Islam,North Carolina,Black Nationalist,2012,Durham,35.9797,-78.9037
Nation of Islam,Michigan,Black Nationalist,2012,Flint,43.0236,-83.6922
Nation of Islam,Florida,Black Nationalist,2012,Fort Lauderdale,26.1412,-80.1464
Nation of Islam,Texas,Black Nationalist,2012,Fort Worth,32.7814,-97.3473
Nation of Islam,California,Black Nationalist,2012,Fresno,36.7834,-119.7941
Nation of Islam,Indiana,Black Nationalist,2012,Gary,41.5906,-87.3472
Nation of Islam,Michigan,Black Nationalist,2012,Grand Rapids,42.9615,-85.6557
Nation of Islam,North Carolina,Black Nationalist,2012,Greensboro,36.0956,-79.8269
Nation of Islam,North Carolina,Black Nationalist,2012,Greenville,35.5957,-77.3764
Nation of Islam,Pennsylvania,Black Nationalist,2012,Harrisburg,40.2752,-76.8843
Nation of Islam,Connecticut,Black Nationalist,2012,Hartford,41.7661,-72.6834
Nation of Islam,Texas,Black Nationalist,2012,Houston,29.7868,-95.3905
Nation of Islam,Alabama,Black Nationalist,2012,Huntsville,34.6989,-86.6414
Nation of Islam,Indiana,Black Nationalist,2012,Indianapolis,39.7771,-86.1458
Nation of Islam,Mississippi,Black Nationalist,2012,Jackson,32.3163,-90.2124
Nation of Islam,Florida,Black Nationalist,2012,Jacksonville,30.3322,-81.6749
Nation of Islam,New Jersey,Black Nationalist,2012,Jersey City,40.7161,-74.0682
Nation of Islam,Illinois,Black Nationalist,2012,Joliet,41.5193,-88.1501
Nation of Islam,Illinois,Black Nationalist,2012,Kankakee,41.102,-87.8643
Nation of Islam,Kansas,Black Nationalist,2012,Kansas City,39.1234,-94.7443
Nation of Islam,Missouri,Black Nationalist,2012,Kansas City,39.1239,-94.5541
Nation of Islam,Michigan,Black Nationalist,2012,Lansing,42.7142,-84.56
Nation of Islam,Nevada,Black Nationalist,2012,Las Vegas,36.2291,-115.2607
Nation of Islam,Arkansas,Black Nationalist,2012,Little Rock,34.7255,-92.3581
Nation of Islam,California,Black Nationalist,2012,Long Beach,33.8059,-118.161
Nation of Islam,California,Black Nationalist,2012,Los Angeles,34.1139,-118.4068
Nation of Islam,Georgia,Black Nationalist,2012,Macon,32.8407,-83.6324
Nation of Islam,Tennessee,Black Nationalist,2012,Memphis,35.1047,-89.9773
Nation of Islam,Florida,Black Nationalist,2012,Miami,25.784,-80.2102
Nation of Islam,Wisconsin,Black Nationalist,2012,Milwaukee,43.064,-87.9669
Nation of Islam,Alabama,Black Nationalist,2012,Mobile,30.6783,-88.1162
Nation of Islam,Tennessee,Black Nationalist,2012,Nashville,36.1714,-86.7844
Nation of Islam,Connecticut,Black Nationalist,2012,New Haven,41.3112,-72.9245
Nation of Islam,Louisiana,Black Nationalist,2012,New Orleans,30.0687,-89.9288
Nation of Islam,New Jersey,Black Nationalist,2012,Newark,40.7245,-74.1725
Nation of Islam,Virginia,Black Nationalist,2012,Norfolk,36.8945,-76.259
Nation of Islam,California,Black Nationalist,2012,Oakland,37.7903,-122.2165
Nation of Islam,California,Black Nationalist,2012,Oakland,37.7903,-122.2165
Nation of Islam,Oklahoma,Black Nationalist,2012,Oklahoma City,35.4676,-97.5136
Nation of Islam,Nebraska,Black Nationalist,2012,Omaha,41.2628,-96.0495
Nation of Islam,Florida,Black Nationalist,2012,Orlando,28.4788,-81.342
Nation of Islam,New Jersey,Black Nationalist,2012,Paterson,40.9147,-74.1624
Nation of Islam,Florida,Black Nationalist,2012,Pensacola,30.4427,-87.1886
Nation of Islam,Illinois,Black Nationalist,2012,Peoria,40.752,-89.6155
Nation of Islam,Pennsylvania,Black Nationalist,2012,Philadelphia,40.0076,-75.134
Nation of Islam,Arizona,Black Nationalist,2012,Phoenix,33.5722,-112.0891
Nation of Islam,Arkansas,Black Nationalist,2012,Pine Bluff,34.2116,-92.0178
Nation of Islam,California,Black Nationalist,2012,Pittsburg,38.019,-121.8969
Nation of Islam,Pennsylvania,Black Nationalist,2012,Pittsburgh,40.4396,-79.9763
Nation of Islam,New Jersey,Black Nationalist,2012,Plainfield,40.6154,-74.4157
Nation of Islam,Oregon,Black Nationalist,2012,Portland,45.5372,-122.65
Nation of Islam,North Carolina,Black Nationalist,2012,Raleigh,35.8323,-78.6439
Nation of Islam,California,Black Nationalist,2012,Richmond,37.9477,-122.339
Nation of Islam,Virginia,Black Nationalist,2012,Richmond,37.5295,-77.4756
Nation of Islam,Illinois,Black Nationalist,2012,Rockford,42.2598,-89.0641
Nation of Islam,California,Black Nationalist,2012,Sacramento,38.5667,-121.4683
Nation of Islam,California,Black Nationalist,2012,San Diego,32.8312,-117.1226
Nation of Islam,California,Black Nationalist,2012,San Francisco,37.7562,-122.443
Nation of Islam,Washington,Black Nationalist,2012,Seattle,47.6211,-122.3244
Nation of Islam,Indiana,Black Nationalist,2012,South Bend,41.6771,-86.2692
Nation of Islam,Mississippi,Black Nationalist,2012,Southaven,34.9514,-89.9787
Nation of Islam,Massachusetts,Black Nationalist,2012,Springfield,42.1155,-72.5395
Nation of Islam,Ohio,Black Nationalist,2012,Springfield,39.9304,-83.7961
Nation Of Islam,California,Black Nationalist,2012,Stockton,37.9766,-121.3112
Nation of Islam,Florida,Black Nationalist,2012,Tampa,27.9937,-82.4454
Nation of Islam,New Jersey,Black Nationalist,2012,Trenton,40.2237,-74.764
Nation of Islam,Texas,Black Nationalist,2012,Tyler,32.3184,-95.3065
Nation of Islam,District of Columbia,Black Nationalist,2012,Washington,38.9047,-77.0163
Nation of Islam,Georgia,Black Nationalist,2012,Waycross,31.2108,-82.358
Nation of Islam,Delaware,Black Nationalist,2012,Wilmington,39.7415,-75.5413
Nation of Islam,North Carolina,Black Nationalist,2012,Winston-Salem,36.1029,-80.261
Nation of Islam,Ohio,Black Nationalist,2012,Youngstown,41.0993,-80.6463
Nation of Islam,Illinois,Black Nationalist,2012,Chicago,41.8373,-87.6861
National Alliance,Ohio,Neo-Nazi,2012,Cincinnati,39.1412,-84.5059
National Alliance,Nevada,Neo-Nazi,2012,Las Vegas,36.2291,-115.2607
National Alliance,California,Neo-Nazi,2012,Los Angeles,34.1139,-118.4068
National Alliance,Ohio,Neo-Nazi,2012,Parma,41.3842,-81.7286
National Alliance,North Carolina,Neo-Nazi,2012,Raleigh,35.8323,-78.6439
National Alliance,California,Neo-Nazi,2012,Sacramento,38.5667,-121.4683
National Alliance,West Virginia,Neo-Nazi,2012,Hillsboro,38.1353,-80.2136
National Black Foot Soldier Network,Michigan,Black Nationalist,2012,Detroit,42.3834,-83.1024
National Black Foot Soldier Network,Tennessee,Black Nationalist,2012,Knoxville,35.9692,-83.9495
National Black Foot Soldier Network,Washington,Black Nationalist,2012,Seattle,47.6211,-122.3244
National Black Foot Soldier Network,Florida,Black Nationalist,2012,Belle Glade,26.6918,-80.6667
National Policy Institute,Montana,White Nationalist,2012,Whitefish,48.4332,-114.3592
National Socialist American Labor Party,Ohio,Neo-Nazi,2012,Toledo,41.6639,-83.5822
National Socialist American Labor Party,California,Neo-Nazi,2012,Burbank,34.1879,-118.3234
National Socialist Aryan Order,Michigan,Neo-Nazi,2012,Davison,43.0318,-83.5187
National Socialist Freedom Movement,Oklahoma,Neo-Nazi,2012,Tulsa,36.1284,-95.9042
National Socialist German Workers Party,Nebraska,Neo-Nazi,2012,Lincoln,40.8098,-96.6802
National Socialist Movement,New Jersey,Neo-Nazi,2012,Bayonne,40.6659,-74.1141
National Socialist Movement,New Jersey,Neo-Nazi,2012,Browns Mills,39.9737,-74.569
National Socialist Movement,South Carolina,Neo-Nazi,2012,Charleston,32.8137,-79.9643
National Socialist Movement,Illinois,Neo-Nazi,2012,Chicago,41.8373,-87.6861
National Socialist Movement,New Jersey,Neo-Nazi,2012,Clifton,40.8631,-74.1575
National Socialist Movement,Maryland,Neo-Nazi,2012,Elkridge,39.1941,-76.7427
National Socialist Movement,South Carolina,Neo-Nazi,2012,Greenville,34.8363,-82.365
National Socialist Movement,Nevada,Neo-Nazi,2012,Las Vegas,36.2291,-115.2607
National Socialist Movement,Alabama,Neo-Nazi,2012,Mobile,30.6783,-88.1162
National Socialist Movement,Wisconsin,Neo-Nazi,2012,New Berlin,42.9726,-88.1291
National Socialist Movement,Arizona,Neo-Nazi,2012,Phoenix,33.5722,-112.0891
National Socialist Movement,California,Neo-Nazi,2012,Riverside,33.9381,-117.3948
National Socialist Movement,California,Neo-Nazi,2012,San Diego,32.8312,-117.1226
National Socialist Movement,California,Neo-Nazi,2012,San Francisco,37.7562,-122.443
National Socialist Movement,Missouri,Neo-Nazi,2012,Springfield,37.1943,-93.2915
National Socialist Movement,Washington,Neo-Nazi,2012,Vancouver,45.6352,-122.597
National Socialist Movement,Indiana,Neo-Nazi,2012,Wakarusa,41.5336,-86.0138
National Socialist Movement,Michigan,Neo-Nazi,2012,Detroit,42.3834,-83.1024
National Vanguard Books,West Virginia,General Hate,2012,Hillsboro,38.1353,-80.2136
Nationalist Movement,Mississippi,White Nationalist,2012,Learned,32.1973,-90.5486
New Black Panther Party,Texas,Black Nationalist,2012,Dallas,32.7937,-96.7662
New Black Panther Party,Texas,Black Nationalist,2012,Houston,29.7868,-95.3905
New Black Panther Party,Florida,Black Nationalist,2012,Jacksonville,30.3322,-81.6749
New Black Panther Party,California,Black Nationalist,2012,Los Angeles,34.1139,-118.4068
New Black Panther Party,Pennsylvania,Black Nationalist,2012,Philadelphia,40.0076,-75.134
New Black Panther Party,District of Columbia,Black Nationalist,2012,Washington,38.9047,-77.0163
New Century Productions - A Conversation About Race,Colorado,White Nationalist,2012,Littleton,39.5911,-105.0194
New Order,Wisconsin,Neo-Nazi,2012,Milwaukee,43.064,-87.9669
New Yorkers for Immigration Control and Enforcement (NYICE),New York,Anti-Immigrant,2012,New York,40.6943,-73.9249
Non-Universal Teaching Ministries/Christogenea,Ohio,Christian Identity,2012,Fostoria,41.1601,-83.4119
Noontide Press,California,Holocaust Denial,2012,Newport Beach,33.6151,-117.8669
North Louisiana White Knights of the KKK,Louisiana,Ku Klux Klan,2012,West Monroe,32.512,-92.1514
Northern Hammerskins,Illinois,Racist Skinhead,2012,Chicago,41.8373,-87.6861
Northern Hammerskins,Michigan,Racist Skinhead,2012,Detroit,42.3834,-83.1024
Northern Hammerskins,Wisconsin,Racist Skinhead,2012,Milwaukee,43.064,-87.9669
Northwest Front,Washington,White Nationalist,2012,Seattle,47.6211,-122.3244
NPI TV,New York,White Nationalist,2012,Brooklyn,40.6501,-73.9496
NS Publications,Michigan,Neo-Nazi,2012,Wyandotte,42.2113,-83.1558
Occidental Dissent,Alabama,White Nationalist,2012,Birmingham,33.5276,-86.7988
Occidental Quarterly/Charles Martel Society,Georgia,White Nationalist,2012,Atlanta,33.7626,-84.4228
Official Street Preachers,California,General Hate,2012,Los Angeles,34.1139,-118.4068
OMNI Christian Book Club,California,Radical Traditional Catholicism,2012,Palmdale,34.5944,-118.1057
Original Knight Riders Knights of the KKK,West Virginia,Ku Klux Klan,2012,Beckley,37.7878,-81.1841
Original Knight Riders Knights of the KKK,North Carolina,Ku Klux Klan,2012,Moyock,36.5165,-76.1728
Original Knights of America Knights of the KKK,Mississippi,Ku Klux Klan,2012,Florence,32.1557,-90.1224
Original Knights of America Knights of the KKK,Mississippi,Ku Klux Klan,2012,Long Beach,30.3608,-89.165
Original Knights of America Knights of the KKK,Mississippi,Ku Klux Klan,2012,Raleigh,32.0322,-89.5247
Original Knights of America Knights of the KKK,Mississippi,Ku Klux Klan,2012,Steens,33.5634,-88.3161
Original Knights of America Knights of the KKK,Mississippi,Ku Klux Klan,2012,Philadelphia,32.7761,-89.1221
Ozark Craft LC,Arkansas,General Hate,2012,Harrison,36.2437,-93.1197
Pace Confederate Depot,Mississippi,Neo-Confederate,2012,Baldwyn,34.5071,-88.6416
Pacifica Forum,Oregon,White Nationalist,2012,Eugene,44.0563,-123.1173
Parents Action League,Minnesota,Anti-LGBT,2012,Champlin,45.1702,-93.3903
Patriotic Flags,South Carolina,White Nationalist,2012,Summerville,33.0005,-80.1788
Pilgrims Covenant Church,Wisconsin,Anti-LGBT,2012,Monroe,42.6026,-89.6374
Pioneer Fund,New York,White Nationalist,2012,New York,40.6943,-73.9249
Pioneer Little Europe Kalispell Montana,Montana,White Nationalist,2012,Kalispell,48.2155,-114.3262
Poker Face,Pennsylvania,Hate Music,2012,Allentown,40.5961,-75.4756
The Political Cesspool,Tennessee,White Nationalist,2012,Bartlett,35.2337,-89.8195
Political Islam,Tennessee,Anti-Muslim,2012,Nashville,36.1714,-86.7844
Power of Prophecy,Texas,General Hate,2012,Austin,30.3006,-97.7517
Protestant White Nationalist Party of Kentucky/Uncreated Light,Kentucky,White Nationalist,2012,Louisville,38.1662,-85.6488
Providence Road Baptist Church,North Carolina,Anti-LGBT,2012,Maiden,35.5853,-81.2202
Public Advocate of the United States,Virginia,Anti-LGBT,2012,Falls Church,38.8847,-77.1751
Racial Nationalist Party of America,New York,White Nationalist,2012,Lockport,43.1698,-78.6956
Rebel Brigade Knights of the KKK,Pennsylvania,Ku Klux Klan,2012,Honesdale,41.5774,-75.2524
Rebel Brigade Knights of the KKK,Virginia,Ku Klux Klan,2012,Martinsville,36.6827,-79.8636
The Redneck Shop,South Carolina,General Hate,2012,Laurens,34.5019,-82.021
Reformation-Bible Puritan-Baptist Church/Vatican Assassins,Pennsylvania,General Hate,2012,Newmanstown,40.3514,-76.2117
The Remnant,Minnesota,Radical Traditional Catholicism,2012,Forest Lake,45.2536,-92.9583
Representative Government Education Foundation,Virginia,White Nationalist,2012,Lexington,37.7825,-79.444
Resistance Records,West Virginia,Hate Music,2012,Hillsboro,38.1353,-80.2136
Revolutionary Order of the Aryan Republic,Tennessee,Neo-Nazi,2012,Chattanooga,35.0657,-85.2488
Sacto Skinheads,California,Racist Skinhead,2012,Sacramento,38.5667,-121.4683
Samanta Roy Institute of Science and Technology,Wisconsin,General Hate,2012,Shawano,44.7749,-88.5844
Save California,California,Anti-LGBT,2012,Sacramento,38.5667,-121.4683
Scott-Townsend Publishers,District of Columbia,White Nationalist,2012,Washington,38.9047,-77.0163
Scriptures for America Worldwide Ministries,Colorado,Christian Identity,2012,Laporte,40.6385,-105.1444
Sharia Awareness Action Network,District of Columbia,Anti-Muslim,2012,Washington,38.9047,-77.0163
The Shepherd's Call Ministries,Tennessee,Christian Identity,2012,New Tazewell,36.4381,-83.6053
Silver Bullet Gun Oil,Virginia,Anti-Muslim,2012,Courtland,36.7123,-77.062
The Social Contract Press,Michigan,White Nationalist,2012,Petoskey,45.3649,-84.9887
Society for the Practical Establishment and Perpetuation of the Ten Commandments,Georgia,General Hate,2012,Eatonton,33.3258,-83.3886
Faith Baptist Church (formerly Sons of Thundr),Georgia,Anti-LGBT,2012,Luthersville,33.2096,-84.7442
South Africa Project,California,White Nationalist,2012,Los Angeles,34.1139,-118.4068
South Africa Project,California,White Nationalist,2012,Sacramento,38.5667,-121.4683
South Africa Project,Louisiana,White Nationalist,2012,Converse,31.7795,-93.7001
Southern European Aryans League Army,Indiana,White Nationalist,2012,Muncie,40.1989,-85.395
Southern Kalvary Knights of the KKK,Texas,Ku Klux Klan,2012,Big Sandy,32.586,-95.1127
SS Regalia,Maryland,Neo-Nazi,2012,Edgewater,38.9373,-76.5572
St. Michael's Parish/Mount St. Michael,Washington,Radical Traditional Catholicism,2012,Spokane,47.6671,-117.433
Stop the Islamization of America (SIOA),New York,Anti-Muslim,2012,New York,40.6943,-73.9249
Stop the Islamization of Nations (SION),New York,Anti-Muslim,2012,New York,40.6943,-73.9249
Stormfront,Florida,White Nationalist,2012,West Palm Beach,26.7467,-80.1314
Sultan Knish a blog by Daniel Greenfield,New York,Anti-Muslim,2012,New York,40.6943,-73.9249
Supreme White Alliance,Illinois,Racist Skinhead,2012,Chicago,41.8373,-87.6861
Supreme White Alliance,New Mexico,Racist Skinhead,2012,Farmington,36.7555,-108.1823
Supreme White Alliance,Arizona,Racist Skinhead,2012,Phoenix,33.5722,-112.0891
Supreme White Alliance,Texas,Racist Skinhead,2012,San Angelo,31.4426,-100.4501
Tabernacle of the Phineas Priesthood - Aryan Nations,Iowa,Neo-Nazi,2012,Malvern,41.0076,-95.5857
TC Family (Traverse City Family),Michigan,Anti-LGBT,2012,Traverse City,44.7547,-85.6035
Tea Party Nation,Tennessee,General Hate,2012,Franklin,35.9214,-86.8524
Tennessee Freedom Coalition,Tennessee,Anti-Muslim,2012,Nashville,36.1714,-86.7844
The Pray in Jesus Name Project,Colorado,Anti-LGBT,2012,Colorado Springs,38.8674,-104.7606
Third Reich Books,Nebraska,Neo-Nazi,2012,Lincoln,40.8098,-96.6802
Tightrope,Arkansas,Hate Music,2012,Calico Rock,36.1399,-92.1337
Tom Brown Ministries,Texas,Anti-LGBT,2012,El Paso,31.8479,-106.4309
Tony Alamo Christian Ministries,Arkansas,General Hate,2012,Fort Smith,35.3494,-94.3695
Tony Alamo Christian Ministries,New York,General Hate,2012,New York,40.6943,-73.9249
Tony Alamo Christian Ministries,Texas,General Hate,2012,Texarkana,33.4487,-94.0815
Tony Alamo Christian Ministries,Arkansas,General Hate,2012,Fouke,33.2615,-93.8864
Torah Jews for Decency,New York,Anti-LGBT,2012,Monsey,41.1181,-74.0681
Tradition in Action,California,Radical Traditional Catholicism,2012,Los Angeles,34.1139,-118.4068
Traditional Values Coalition,District of Columbia,Anti-LGBT,2012,Washington,38.9047,-77.0163
Traditional Values Coalition,California,Anti-LGBT,2012,Anaheim,33.839,-117.8572
True Invisible Empire Knights of the KKK,Missouri,Ku Klux Klan,2012,Park Hills,37.8211,-90.505
True Invisible Empire Traditionalist American Knights of the KKK,Tennessee,Ku Klux Klan,2012,La Vergne,36.0209,-86.5574
True Invisible Empire Traditionalist American Knights of the KKK,Missouri,Ku Klux Klan,2012,Potosi,37.9337,-90.775
True Light Pentecost Church,South Carolina,Anti-LGBT,2012,Spartanburg,34.9437,-81.9257
True White Knights of the Christian Cross,Alabama,Ku Klux Klan,2012,Gaylesville,34.2681,-85.5585
Truth Triumphant,Florida,General Hate,2012,Eustis,28.8559,-81.678
United Families International,Arizona,Anti-LGBT,2012,Gilbert,33.3103,-111.7463
United for a Sovereign America (USA),Arizona,Anti-Immigrant,2012,Phoenix,33.5722,-112.0891
United Identity Church of Christ,Texas,Christian Identity,2012,Simms,33.3504,-94.5074
United Klans of America,South Carolina,Ku Klux Klan,2012,Aiken,33.5303,-81.727
United Klans of America,Alabama,Ku Klux Klan,2012,Anniston,33.6713,-85.8136
United Klans of America,Georgia,Ku Klux Klan,2012,Atlanta,33.7626,-84.4228
United Klans of America,Alabama,Ku Klux Klan,2012,Birmingham,33.5276,-86.7988
United Klans of America,Michigan,Ku Klux Klan,2012,Clare,43.826,-84.7635
United Klans of America,Georgia,Ku Klux Klan,2012,Clarkesville,34.6103,-83.5284
United Klans of America,Virginia,Ku Klux Klan,2012,Culpeper,38.4705,-78.0001
United Klans of America,Texas,Ku Klux Klan,2012,Denton,33.2176,-97.1421
United Klans of America,Tennessee,Ku Klux Klan,2012,Dyersburg,36.0465,-89.3778
United Klans of America,Ohio,Ku Klux Klan,2012,Eaton,39.7506,-84.6343
United Klans of America,Oklahoma,Ku Klux Klan,2012,Eufaula,35.2922,-95.5862
United Klans of America,Michigan,Ku Klux Klan,2012,Flint,43.0236,-83.6922
United Klans of America,Montana,Ku Klux Klan,2012,Great Falls,47.5022,-111.2995
United Klans of America,Illinois,Ku Klux Klan,2012,Joliet,41.5193,-88.1501
United Klans of America,Michigan,Ku Klux Klan,2012,Kalamazoo,42.2749,-85.5881
United Klans of America,Washington,Ku Klux Klan,2012,Kirkland,47.6997,-122.2041
United Klans of America,Kentucky,Ku Klux Klan,2012,Lexington,38.0423,-84.4587
United Klans of America,Texas,Ku Klux Klan,2012,Longview,32.5192,-94.7622
United Klans of America,Tennessee,Ku Klux Klan,2012,Nashville,36.1714,-86.7844
United Klans of America,Virginia,Ku Klux Klan,2012,Norfolk,36.8945,-76.259
United Klans of America,Arizona,Ku Klux Klan,2012,Phoenix,33.5722,-112.0891
United Klans of America,Montana,Ku Klux Klan,2012,Polson,47.6896,-114.1429
United Klans of America,Florida,Ku Klux Klan,2012,Pomona Park,29.5015,-81.5936
United Klans of America,Rhode Island,Ku Klux Klan,2012,Providence,41.8229,-71.4186
United Klans of America,Virginia,Ku Klux Klan,2012,Richmond,37.5295,-77.4756
United Klans of America,Tennessee,Ku Klux Klan,2012,Shelbyville,35.4987,-86.4516
United Klans of America,Virginia,Ku Klux Klan,2012,South Hill,36.7254,-78.1287
United Klans of America,Florida,Ku Klux Klan,2012,Tallahassee,30.455,-84.2526
United Klans of America,Iowa,Ku Klux Klan,2012,Waterloo,42.492,-92.3522
United Klans of America,Washington,Ku Klux Klan,2012,Yakima,46.5923,-120.5496
United Klans of America,Pennsylvania,Ku Klux Klan,2012,York,39.9651,-76.7315
United Klans of America,Alabama,Ku Klux Klan,2012,Ashland,33.2704,-85.8337
United Nation of Nuwaupia (Nuwaubians),Georgia,Black Nationalist,2012,Atlanta,33.7626,-84.4228
United Northern and Southern Knights of the KKK,Illinois,Ku Klux Klan,2012,Chicago,41.8373,-87.6861
United Northern and Southern Knights of the KKK,Tennessee,Ku Klux Klan,2012,Kingsport,36.522,-82.5453
United Northern and Southern Knights of the KKK,Colorado,Ku Klux Klan,2012,Longmont,40.1691,-105.0996
United Northern and Southern Knights of the KKK,Indiana,Ku Klux Klan,2012,West College Corner,39.5694,-84.819
United Northern and Southern Knights of the KKK,Michigan,Ku Klux Klan,2012,Fraser,42.5388,-82.9496
United Patriots of America,New Jersey,General Hate,2012,Linden,40.6251,-74.2381
United Society of Aryan Skinheads,California,Racist Skinhead,2012,San Diego,32.8312,-117.1226
United States Defense League,North Carolina,Anti-Muslim,2012,Monroe,35.0061,-80.5593
United States Justice Foundation,California,Anti-Muslim,2012,Ramona,33.0474,-116.8767
The United West,Florida,Anti-Muslim,2012,Lake Worth,26.6194,-80.059
United White Knights of the KKK,Oklahoma,Ku Klux Klan,2012,Atoka,34.3856,-96.1313
United White Knights of the KKK,Texas,Ku Klux Klan,2012,Beaumont,30.0849,-94.1451
United White Knights of the KKK,Texas,Ku Klux Klan,2012,Buffalo,31.46,-96.066
United White Knights of the KKK,Texas,Ku Klux Klan,2012,Corpus Christi,27.7173,-97.3822
United White Knights of the KKK,Texas,Ku Klux Klan,2012,Dallas,32.7937,-96.7662
United White Knights of the KKK,Texas,Ku Klux Klan,2012,Forney,32.7447,-96.4519
United White Knights of the KKK,Texas,Ku Klux Klan,2012,Fort Worth,32.7814,-97.3473
United White Knights of the KKK,Texas,Ku Klux Klan,2012,Gatesville,31.4419,-97.7351
United White Knights of the KKK,Oklahoma,Ku Klux Klan,2012,Henryetta,35.4421,-95.9848
United White Knights of the KKK,Oklahoma,Ku Klux Klan,2012,Holdenville,35.0836,-96.4004
United White Knights of the KKK,Texas,Ku Klux Klan,2012,Houston,29.7868,-95.3905
United White Knights of the KKK,Texas,Ku Klux Klan,2012,Lufkin,31.3217,-94.7277
United White Knights of the KKK,Texas,Ku Klux Klan,2012,Marshall,32.537,-94.3515
United White Knights of the KKK,Texas,Ku Klux Klan,2012,Midlothian,32.4719,-96.9877
United White Knights of the KKK,Louisiana,Ku Klux Klan,2012,Monroe,32.5184,-92.0774
United White Knights of the KKK,Oklahoma,Ku Klux Klan,2012,Oklahoma City,35.4676,-97.5136
United White Knights of the KKK,Texas,Ku Klux Klan,2012,San Saba,31.1965,-98.7244
United White Knights of the KKK,Louisiana,Ku Klux Klan,2012,Sarepta,32.8963,-93.4514
United White Knights of the KKK,Oklahoma,Ku Klux Klan,2012,Shawnee,35.3525,-96.9647
United White Knights of the KKK,Oklahoma,Ku Klux Klan,2012,Tulsa,36.1284,-95.9042
United White Knights of the KKK,Texas,Ku Klux Klan,2012,Vidor,30.1291,-93.9967
United White Knights of the KKK,Texas,Ku Klux Klan,2012,Wichita Falls,33.9072,-98.5293
United White Knights of the KKK,Texas,Ku Klux Klan,2012,Longview,32.5192,-94.7622
US Border Guard,Arizona,Anti-Immigrant,2012,Mesa,33.4017,-111.7181
VDARE Foundation,Virginia,White Nationalist,2012,Warrenton,38.7176,-77.7975
Vinland Folk Resistance,California,General Hate,2012,Kingsburg,36.5242,-119.5608
Vinland Murder Squad,Arizona,Racist Skinhead,2012,Phoenix,33.5722,-112.0891
Vinlanders Alaska,Alaska,Racist Skinhead,2012,Anchorage,61.1508,-149.1091
Vinlanders Arizona,Arizona,Racist Skinhead,2012,Mesa,33.4017,-111.7181
Vinlanders Indiana,Indiana,Racist Skinhead,2012,Knightstown,39.796,-85.5311
Vinlanders New Jersey,New Jersey,Racist Skinhead,2012,Cherry Hill,39.9348,-75.0307
Vinlanders New Jersey,New Jersey,Racist Skinhead,2012,Closter,40.9733,-73.9604
Vinlanders North Dakota,North Dakota,Racist Skinhead,2012,Alexander,47.8393,-103.6426
Virginia Publishing Company,Virginia,Christian Identity,2012,Lynchburg,37.4003,-79.1908
Voice of Reason Broadcast Network,California,White Nationalist,2012,Pasadena,34.1598,-118.139
Volksfront,Massachusetts,Racist Skinhead,2012,Boston,42.3188,-71.0846
Volksfront,Missouri,Racist Skinhead,2012,Bridgeton,38.7672,-90.4276
Volksfront,California,Racist Skinhead,2012,Castaic,34.4818,-118.6317
Volksfront,Illinois,Racist Skinhead,2012,Chicago,41.8373,-87.6861
Volksfront,Ohio,Racist Skinhead,2012,Columbus,39.986,-82.9852
Volksfront,Michigan,Racist Skinhead,2012,Detroit,42.3834,-83.1024
Volksfront,Tennessee,Racist Skinhead,2012,Knoxville,35.9692,-83.9495
Volksfront,Virginia,Racist Skinhead,2012,Norfolk,36.8945,-76.259
Volksfront,Nebraska,Racist Skinhead,2012,Omaha,41.2628,-96.0495
Volksfront,Florida,Racist Skinhead,2012,Pensacola,30.4427,-87.1886
Volksfront,Iowa,Racist Skinhead,2012,Pisgah,41.8304,-95.9264
Volksfront,Pennsylvania,Racist Skinhead,2012,Pittsburgh,40.4396,-79.9763
Volksfront,Maine,Racist Skinhead,2012,Portland,43.6773,-70.2715
Volksfront,Texas,Racist Skinhead,2012,Texarkana,33.4487,-94.0815
Volksfront,Oregon,Racist Skinhead,2012,Portland,45.5372,-122.65
Voz de Aztlan,California,General Hate,2012,Whittier,33.9678,-118.0188
War On The Horizon,District of Columbia,Black Nationalist,2012,Washington,38.9047,-77.0163
WAR Skins,Arizona,Racist Skinhead,2012,Phoenix,33.5722,-112.0891
Washington Summit Publishers,Montana,White Nationalist,2012,Whitefish,48.4332,-114.3592
Weisman Publications,Minnesota,Christian Identity,2012,Apple Valley,44.7458,-93.2006
Westboro Baptist Church,Kansas,Anti-LGBT,2012,Topeka,39.0346,-95.6956
Western Hammerskins,California,Racist Skinhead,2012,San Diego,32.8312,-117.1226
White Aryan Resistance,Indiana,Neo-Nazi,2012,Warsaw,41.2443,-85.8479
White Camelia Knights of the KKK,Texas,Ku Klux Klan,2012,Pasadena,29.6584,-95.1499
White Camelia Knights of the KKK,Texas,Ku Klux Klan,2012,Cleveland,30.3368,-95.0924
White Pride Home School Resource Center,Arkansas,General Hate,2012,Bergman,36.3128,-93.0115
White Student Union,Maryland,White Nationalist,2012,Towson,39.3944,-76.619
Windsor Hills Baptist Church,Oklahoma,Anti-LGBT,2012,Oklahoma City,35.4676,-97.5136
Women for Aryan Unity,New York,Neo-Nazi,2012,Brooklyn,40.6501,-73.9496
WTM Enterprises,Indiana,White Nationalist,2012,Roanoke,40.964,-85.3761
"You Can Run, But You Cannot Hide",Minnesota,Anti-LGBT,2012,Annandale,45.2598,-94.1205
